{
"type": "FeatureCollection",

"features": [
{"geometry": {"type": "Point", "coordinates": [103.77568502900004, 1.3298733610000679]}, "type": "Feature", "properties": {"CATEGORY": "The Grand Hall", "WEBSITE": null, "NAME": "The Grand Hall", "POINT_ID": "P00005", "HOURS": null, "PHONE": null, "SUITE": "A.4.02B", "LEVEL_ID": "L004"}},
{"geometry": {"type": "Point", "coordinates": [103.77618647100007, 1.329923343000075]}, "type": "Feature", "properties": {"CATEGORY": "Lecture Theatre", "WEBSITE": "undefined", "NAME": "A.4.05", "POINT_ID": "P00006", "HOURS": "undefined", "PHONE": "undefined", "SUITE": "A.4.05", "LEVEL_ID": "L004"}},
{"geometry": {"type": "Point", "coordinates": [103.77626088100004, 1.3298324740000571]}, "type": "Feature", "properties": {"CATEGORY": "Seminar Room", "WEBSITE": "undefined", "NAME": "A.4.06", "POINT_ID": "P00007", "HOURS": "undefined", "PHONE": "undefined", "SUITE": "A.4.06", "LEVEL_ID": "L004"}},
{"geometry": {"type": "Point", "coordinates": [103.77641589300003, 1.3297461130000561]}, "type": "Feature", "properties": {"CATEGORY": "Seminar Room", "WEBSITE": "undefined", "NAME": "A.4.07B", "POINT_ID": "P00008", "HOURS": "undefined", "PHONE": "undefined", "SUITE": "A.4.07B", "LEVEL_ID": "L004"}},
{"geometry": {"type": "Point", "coordinates": [103.77633872100006, 1.3297842150000749]}, "type": "Feature", "properties": {"CATEGORY": "Lecture Theatre", "WEBSITE": "undefined", "NAME": "A.4.07A", "POINT_ID": "P00009", "HOURS": "undefined", "PHONE": "undefined", "SUITE": "A.4.07A", "LEVEL_ID": "L004"}},
{"geometry": {"type": "Point", "coordinates": [103.77653932700008, 1.3297668040000299]}, "type": "Feature", "properties": {"CATEGORY": "Lecture Theatre", "WEBSITE": "undefined", "NAME": "A.4.08", "POINT_ID": "P00010", "HOURS": "undefined", "PHONE": "undefined", "SUITE": "A.4.08", "LEVEL_ID": "L004"}},
{"geometry": {"type": "Point", "coordinates": [103.77606568800007, 1.329703144000064]}, "type": "Feature", "properties": {"CATEGORY": "Lecture Theatre", "WEBSITE": "undefined", "NAME": "A.4.04", "POINT_ID": "P00011", "HOURS": "undefined", "PHONE": "undefined", "SUITE": "A.4.04", "LEVEL_ID": "L004"}},
{"geometry": {"type": "Point", "coordinates": [103.77580259600006, 1.3290468680000349]}, "type": "Feature", "properties": {"CATEGORY": "Lecture Theatre", "WEBSITE": "undefined", "NAME": "B.4.06", "POINT_ID": "P00012", "HOURS": "undefined", "PHONE": "undefined", "SUITE": "B.4.06", "LEVEL_ID": "L004"}},
{"geometry": {"type": "Point", "coordinates": [103.77666236000005, 1.3296206700000539]}, "type": "Feature", "properties": {"CATEGORY": "Seminar Room", "WEBSITE": "undefined", "NAME": "A.4.09A", "POINT_ID": "P00013", "HOURS": "undefined", "PHONE": "undefined", "SUITE": "A.4.09A", "LEVEL_ID": "L004"}},
{"geometry": {"type": "Point", "coordinates": [103.77700445100004, 1.329474979000054]}, "type": "Feature", "properties": {"CATEGORY": "Seminar Room", "WEBSITE": "undefined", "NAME": "A.4.11", "POINT_ID": "P00014", "HOURS": "undefined", "PHONE": "undefined", "SUITE": "A.4.11", "LEVEL_ID": "L004"}},
{"geometry": {"type": "Point", "coordinates": [103.77697279400007, 1.32940972900002]}, "type": "Feature", "properties": {"CATEGORY": "Seminar Room", "WEBSITE": "undefined", "NAME": "A.4.12", "POINT_ID": "P00015", "HOURS": "undefined", "PHONE": "undefined", "SUITE": "A.4.12", "LEVEL_ID": "L004"}},
{"geometry": {"type": "Point", "coordinates": [103.77683858600005, 1.3291112800000631]}, "type": "Feature", "properties": {"CATEGORY": "Seminar Room", "WEBSITE": "undefined", "NAME": "A.4.14", "POINT_ID": "P00016", "HOURS": "undefined", "PHONE": "undefined", "SUITE": "A.4.14", "LEVEL_ID": "L004"}},
{"geometry": {"type": "Point", "coordinates": [103.77681164700005, 1.329047268000068]}, "type": "Feature", "properties": {"CATEGORY": "Seminar Room", "WEBSITE": "undefined", "NAME": "A.4.15", "POINT_ID": "P00017", "HOURS": "undefined", "PHONE": "undefined", "SUITE": "A.4.15", "LEVEL_ID": "L004"}},
{"geometry": {"type": "Point", "coordinates": [103.77648783000006, 1.329222663000053]}, "type": "Feature", "properties": {"CATEGORY": "Seminar Room", "WEBSITE": "undefined", "NAME": "A.4.17C", "POINT_ID": "P00018", "HOURS": "undefined", "PHONE": "undefined", "SUITE": "A.4.17C", "LEVEL_ID": "L004"}},
{"geometry": {"type": "Point", "coordinates": [103.77645531000007, 1.329533750000053]}, "type": "Feature", "properties": {"CATEGORY": "Seminar Room", "WEBSITE": "undefined", "NAME": "A.4.18", "POINT_ID": "P00019", "HOURS": "undefined", "PHONE": "undefined", "SUITE": "A.4.18", "LEVEL_ID": "L004"}},
{"geometry": {"type": "Point", "coordinates": [103.77611186400009, 1.3293942170000721]}, "type": "Feature", "properties": {"CATEGORY": "Seminar Room", "WEBSITE": "undefined", "NAME": "A.4.01B", "POINT_ID": "P00020", "HOURS": "undefined", "PHONE": "undefined", "SUITE": "A.4.01B", "LEVEL_ID": "L004"}},
{"geometry": {"type": "Point", "coordinates": [103.77619608500004, 1.3293590730000351]}, "type": "Feature", "properties": {"CATEGORY": "Seminar Room", "WEBSITE": "undefined", "NAME": "A.4.01A", "POINT_ID": "P00021", "HOURS": "undefined", "PHONE": "undefined", "SUITE": "A.4.01A", "LEVEL_ID": "L004"}},
{"geometry": {"type": "Point", "coordinates": [103.77603045100005, 1.3296238450000719]}, "type": "Feature", "properties": {"CATEGORY": "Seminar Room", "WEBSITE": "undefined", "NAME": "A.4.03", "POINT_ID": "P00022", "HOURS": "undefined", "PHONE": "undefined", "SUITE": "A.4.03", "LEVEL_ID": "L004"}},
{"geometry": {"type": "Point", "coordinates": [103.77551120300006, 1.329368908000049]}, "type": "Feature", "properties": {"CATEGORY": "Seminar Room", "WEBSITE": "undefined", "NAME": "B.4.11", "POINT_ID": "P00023", "HOURS": "undefined", "PHONE": "undefined", "SUITE": "B.4.11", "LEVEL_ID": "L004"}},
{"geometry": {"type": "Point", "coordinates": [103.77553617500007, 1.3293167200000651]}, "type": "Feature", "properties": {"CATEGORY": "Seminar Room", "WEBSITE": "undefined", "NAME": "B.4.12", "POINT_ID": "P00024", "HOURS": "undefined", "PHONE": "undefined", "SUITE": "B.4.12", "LEVEL_ID": "L004"}},
{"geometry": {"type": "Point", "coordinates": [103.77559643600006, 1.3292913160000239]}, "type": "Feature", "properties": {"CATEGORY": "Seminar Room", "WEBSITE": "undefined", "NAME": "B.4.13", "POINT_ID": "P00025", "HOURS": "undefined", "PHONE": "undefined", "SUITE": "B.4.13", "LEVEL_ID": "L004"}},
{"geometry": {"type": "Point", "coordinates": [103.77565233900003, 1.329306470000063]}, "type": "Feature", "properties": {"CATEGORY": "Seminar Room", "WEBSITE": "undefined", "NAME": "B.4.14", "POINT_ID": "P00026", "HOURS": "undefined", "PHONE": "undefined", "SUITE": "B.4.14", "LEVEL_ID": "L004"}},
{"geometry": {"type": "Point", "coordinates": [103.77537233800007, 1.3292370500000741]}, "type": "Feature", "properties": {"CATEGORY": "Seminar Room", "WEBSITE": "undefined", "NAME": "B.4.10", "POINT_ID": "P00027", "HOURS": "undefined", "PHONE": "undefined", "SUITE": "B.4.10", "LEVEL_ID": "L004"}},
{"geometry": {"type": "Point", "coordinates": [103.77546253500009, 1.3291929220000609]}, "type": "Feature", "properties": {"CATEGORY": "Seminar Room", "WEBSITE": "undefined", "NAME": "B.4.09", "POINT_ID": "P00028", "HOURS": "undefined", "PHONE": "undefined", "SUITE": "B.4.09", "LEVEL_ID": "L004"}},
{"geometry": {"type": "Point", "coordinates": [103.77555369600009, 1.329150950000042]}, "type": "Feature", "properties": {"CATEGORY": "Seminar Room", "WEBSITE": "undefined", "NAME": "B.4.08", "POINT_ID": "P00029", "HOURS": "undefined", "PHONE": "undefined", "SUITE": "B.4.08", "LEVEL_ID": "L004"}},
{"geometry": {"type": "Point", "coordinates": [103.77564595100006, 1.3291058360000529]}, "type": "Feature", "properties": {"CATEGORY": "Seminar Room", "WEBSITE": "undefined", "NAME": "B.4.07", "POINT_ID": "P00030", "HOURS": "undefined", "PHONE": "undefined", "SUITE": "B.4.07", "LEVEL_ID": "L004"}},
{"geometry": {"type": "Point", "coordinates": [103.77593936100004, 1.329011464000075]}, "type": "Feature", "properties": {"CATEGORY": "Lecture Theatre", "WEBSITE": "undefined", "NAME": "B.4.05", "POINT_ID": "P00031", "HOURS": "undefined", "PHONE": "undefined", "SUITE": "B.4.05", "LEVEL_ID": "L004"}},
{"geometry": {"type": "Point", "coordinates": [103.77603697500007, 1.328969025000049]}, "type": "Feature", "properties": {"CATEGORY": "Lecture Theatre", "WEBSITE": "undefined", "NAME": "B.4.04", "POINT_ID": "P00032", "HOURS": "undefined", "PHONE": "undefined", "SUITE": "B.4.04", "LEVEL_ID": "L004"}},
{"geometry": {"type": "Point", "coordinates": [103.77588245300007, 1.329247481000039]}, "type": "Feature", "properties": {"CATEGORY": "Lecture Theatre", "WEBSITE": "undefined", "NAME": "B.4.16", "POINT_ID": "P00033", "HOURS": "undefined", "PHONE": "undefined", "SUITE": "B.4.16", "LEVEL_ID": "L004"}},
{"geometry": {"type": "Point", "coordinates": [103.77571492800007, 1.329254599000024]}, "type": "Feature", "properties": {"CATEGORY": "Laboratory", "WEBSITE": "undefined", "NAME": "B.4.15", "POINT_ID": "P00034", "HOURS": "undefined", "PHONE": "undefined", "SUITE": "B.4.15", "LEVEL_ID": "L004"}},
{"geometry": {"type": "Point", "coordinates": [103.77595848400006, 1.3293989790000751]}, "type": "Feature", "properties": {"CATEGORY": "Lecture Theatre", "WEBSITE": "undefined", "NAME": "A.4.02A", "POINT_ID": "P00035", "HOURS": "undefined", "PHONE": "undefined", "SUITE": "A.4.02A", "LEVEL_ID": "L004"}},
{"geometry": {"type": "Point", "coordinates": [103.77610182200004, 1.329251558000067]}, "type": "Feature", "properties": {"CATEGORY": "Lecture Theatre", "WEBSITE": "undefined", "NAME": "B.4.17", "POINT_ID": "P00036", "HOURS": "undefined", "PHONE": "undefined", "SUITE": "B.4.17", "LEVEL_ID": "L004"}},
{"geometry": {"type": "Point", "coordinates": [103.77623877800005, 1.3290875280000589]}, "type": "Feature", "properties": {"CATEGORY": "Lecture Theatre", "WEBSITE": "undefined", "NAME": "B.4.01", "POINT_ID": "P00037", "HOURS": "undefined", "PHONE": "undefined", "SUITE": "B.4.01", "LEVEL_ID": "L004"}},
{"geometry": {"type": "Point", "coordinates": [103.77629567400004, 1.329224164000038]}, "type": "Feature", "properties": {"CATEGORY": "Lecture Theatre", "WEBSITE": "undefined", "NAME": "A.4.20", "POINT_ID": "P00038", "HOURS": "undefined", "PHONE": "undefined", "SUITE": "A.4.20", "LEVEL_ID": "L004"}},
{"geometry": {"type": "Point", "coordinates": [103.77656826300006, 1.3291819600000281]}, "type": "Feature", "properties": {"CATEGORY": "Lecture Theatre", "WEBSITE": "undefined", "NAME": "A.4.17B", "POINT_ID": "P00039", "HOURS": "undefined", "PHONE": "undefined", "SUITE": "A.4.17B", "LEVEL_ID": "L004"}},
{"geometry": {"type": "Point", "coordinates": [103.77665741300007, 1.3291392080000719]}, "type": "Feature", "properties": {"CATEGORY": "Lecture Theatre", "WEBSITE": "undefined", "NAME": "A.4.17A", "POINT_ID": "P00040", "HOURS": "undefined", "PHONE": "undefined", "SUITE": "A.4.17A", "LEVEL_ID": "L004"}},
{"geometry": {"type": "Point", "coordinates": [103.77615005800004, 1.328882008000051]}, "type": "Feature", "properties": {"CATEGORY": "Lecture Theatre", "WEBSITE": "undefined", "NAME": "B.4.03", "POINT_ID": "P00041", "HOURS": "undefined", "PHONE": "undefined", "SUITE": "B.4.03", "LEVEL_ID": "L004"}},
{"geometry": {"type": "Point", "coordinates": [103.77669535300004, 1.3289166590000721]}, "type": "Feature", "properties": {"CATEGORY": "Lecture Theatre", "WEBSITE": "undefined", "NAME": "A.4.16", "POINT_ID": "P00042", "HOURS": "undefined", "PHONE": "undefined", "SUITE": "A.4.16", "LEVEL_ID": "L004"}},
{"geometry": {"type": "Point", "coordinates": [103.77684272600004, 1.3295399150000551]}, "type": "Feature", "properties": {"CATEGORY": "Lecture Theatre", "WEBSITE": "undefined", "NAME": "A.4.09C", "POINT_ID": "P00043", "HOURS": "undefined", "PHONE": "undefined", "SUITE": "A.4.09C", "LEVEL_ID": "L004"}},
{"geometry": {"type": "Point", "coordinates": [103.77674460400004, 1.3295858770000559]}, "type": "Feature", "properties": {"CATEGORY": "Lecture Theatre", "WEBSITE": "undefined", "NAME": "A.4.09B", "POINT_ID": "P00044", "HOURS": "undefined", "PHONE": "undefined", "SUITE": "A.4.09B", "LEVEL_ID": "L004"}},
{"geometry": {"type": "Point", "coordinates": [103.77701558500007, 1.3296285860000689]}, "type": "Feature", "properties": {"CATEGORY": "Lecture Theatre", "WEBSITE": "undefined", "NAME": "A.4.10", "POINT_ID": "P00045", "HOURS": "undefined", "PHONE": "undefined", "SUITE": "A.4.10", "LEVEL_ID": "L004"}},
{"geometry": {"type": "Point", "coordinates": [103.77642191300004, 1.3294554050000329]}, "type": "Feature", "properties": {"CATEGORY": "Lecture Theatre", "WEBSITE": "undefined", "NAME": "A.4.19", "POINT_ID": "P00046", "HOURS": "undefined", "PHONE": "undefined", "SUITE": "A.4.19", "LEVEL_ID": "L004"}},
{"geometry": {"type": "Point", "coordinates": [103.77688539600007, 1.329283559000032]}, "type": "Feature", "properties": {"CATEGORY": "Student Area", "WEBSITE": null, "NAME": "Student Lounge", "POINT_ID": "P00047", "HOURS": null, "PHONE": null, "SUITE": "_autoSuite_25", "LEVEL_ID": "L004"}},
{"geometry": {"type": "Point", "coordinates": [103.77588460300007, 1.329499465000026]}, "type": "Feature", "properties": {"CATEGORY": "Admin", "WEBSITE": null, "NAME": "Foyer A Admin Office Internal Audit/Academic QA", "POINT_ID": "P00048", "HOURS": null, "PHONE": null, "SUITE": "Foyer A Admin Office Internal Audit/Academic QA", "LEVEL_ID": "L004"}},
{"geometry": {"type": "Point", "coordinates": [103.77591922400006, 1.329525163000028]}, "type": "Feature", "properties": {"CATEGORY": "Meeting Room", "WEBSITE": null, "NAME": null, "POINT_ID": "P00049", "HOURS": null, "PHONE": null, "SUITE": "_autoSuite_141", "LEVEL_ID": "L004"}},
{"geometry": {"type": "Point", "coordinates": [103.77549772400005, 1.329359093000051]}, "type": "Feature", "properties": {"CATEGORY": "Library Area", "WEBSITE": "undefined", "NAME": "Library Dicussion Room 1-4", "POINT_ID": "P00057", "HOURS": "undefined", "PHONE": "undefined", "SUITE": "Library Dicussion Room 1-4", "LEVEL_ID": "L001"}},
{"geometry": {"type": "Point", "coordinates": [103.77555287900009, 1.3292971090000381]}, "type": "Feature", "properties": {"CATEGORY": "Cyber Express", "WEBSITE": "undefined", "NAME": "Cyber Express Room 5-6", "POINT_ID": "P00058", "HOURS": "undefined", "PHONE": "undefined", "SUITE": "Cyber Express Room 5-6", "LEVEL_ID": "L001"}},
{"geometry": {"type": "Point", "coordinates": [103.77555651700004, 1.329139330000032]}, "type": "Feature", "properties": {"CATEGORY": "Student Services", "WEBSITE": "undefined", "NAME": "B.1.08", "POINT_ID": "P00059", "HOURS": "undefined", "PHONE": "undefined", "SUITE": "B.1.08", "LEVEL_ID": "L001"}},
{"geometry": {"type": "Point", "coordinates": [103.77569877700006, 1.329397055000072]}, "type": "Feature", "properties": {"CATEGORY": null, "RoutePoints": [34], "NAME": "Courtyard", "POINT_ID": "P00060", "HOURS": null, "PHONE": null, "SUITE": "_autoSuite_243", "WEBSITE": null, "LEVEL_ID": "L001"}},
{"geometry": {"type": "Point", "coordinates": [103.77587924600004, 1.3292401160000511]}, "type": "Feature", "properties": {"CATEGORY": "Cyber Lounge", "WEBSITE": "undefined", "NAME": "B.1.16", "POINT_ID": "P00061", "HOURS": "undefined", "PHONE": "undefined", "SUITE": "B.1.16", "LEVEL_ID": "L001"}},
{"geometry": {"type": "Point", "coordinates": [103.77605204700006, 1.329147774000035]}, "type": "Feature", "properties": {"CATEGORY": "Student Life", "RoutePoints": [29], "NAME": "Student Life Room", "POINT_ID": "P00062", "HOURS": "undefined", "PHONE": "undefined", "SUITE": "_autoSuite_243", "WEBSITE": "undefined", "LEVEL_ID": "L001"}},
{"geometry": {"type": "Point", "coordinates": [103.77622725500004, 1.3290536050000701]}, "type": "Feature", "properties": {"CATEGORY": "Student Life", "WEBSITE": "undefined", "NAME": "B.1.01", "POINT_ID": "P00063", "HOURS": "undefined", "PHONE": "undefined", "SUITE": "B.1.01", "LEVEL_ID": "L001"}},
{"geometry": {"type": "Point", "coordinates": [103.77614021100004, 1.32906082300002]}, "type": "Feature", "properties": {"CATEGORY": "Mailbox", "WEBSITE": null, "NAME": null, "POINT_ID": "P00064", "HOURS": null, "PHONE": null, "SUITE": "_autoSuite_243", "LEVEL_ID": "L001"}},
{"geometry": {"type": "Point", "coordinates": [103.77626359700008, 1.3288781160000549]}, "type": "Feature", "properties": {"CATEGORY": "Counter", "WEBSITE": null, "NAME": "Security Counter", "POINT_ID": "P00065", "HOURS": null, "PHONE": null, "SUITE": "_autoSuite_243", "LEVEL_ID": "L001"}},
{"geometry": {"type": "Point", "coordinates": [103.77664630300006, 1.3294000410000419]}, "type": "Feature", "properties": {"CATEGORY": "Courtyard", "RoutePoints": [37], "NAME": "Landscaped Courtyard", "POINT_ID": "P00066", "HOURS": null, "PHONE": null, "SUITE": "_autoSuite_153", "WEBSITE": null, "LEVEL_ID": "L001"}},
{"geometry": {"type": "Point", "coordinates": [103.77617201100009, 1.3296155850000559]}, "type": "Feature", "properties": {"CATEGORY": "Parking", "WEBSITE": null, "NAME": "Car Park", "POINT_ID": "P00067", "HOURS": null, "PHONE": null, "SUITE": "_autoSuite_201", "LEVEL_ID": "L001"}},
{"geometry": {"type": "Point", "coordinates": [103.77579998400006, 1.329045652000048]}, "type": "Feature", "properties": {"CATEGORY": null, "RoutePoints": [25], "NAME": "Student Activity Area", "POINT_ID": "P00068", "HOURS": null, "PHONE": null, "SUITE": "_autoSuite_243", "WEBSITE": null, "LEVEL_ID": "L001"}},
{"geometry": {"type": "Point", "coordinates": [103.77576502600004, 1.32898416200004]}, "type": "Feature", "properties": {"CATEGORY": "Eating/Drinking", "WEBSITE": null, "NAME": "Outdoor Dining", "POINT_ID": "P00069", "HOURS": null, "PHONE": null, "SUITE": "_autoSuite_243", "LEVEL_ID": "L001"}},
{"geometry": {"type": "Point", "coordinates": [103.77590799300003, 1.3289849230000641]}, "type": "Feature", "properties": {"CATEGORY": "Eating/Drinking", "WEBSITE": null, "NAME": "B.1.05 Cafeteria", "POINT_ID": "P00070", "HOURS": null, "PHONE": null, "SUITE": "B.1.05", "LEVEL_ID": "L001"}},
{"geometry": {"type": "Point", "coordinates": [103.77603359500006, 1.328934713000024]}, "type": "Feature", "properties": {"CATEGORY": "Eating/Drinking", "WEBSITE": null, "NAME": "B.1.04 Cafeteria", "POINT_ID": "P00071", "HOURS": null, "PHONE": null, "SUITE": "B.1.04", "LEVEL_ID": "L001"}},
{"geometry": {"type": "Point", "coordinates": [103.77615045700009, 1.328886045000047]}, "type": "Feature", "properties": {"CATEGORY": "Recreation", "RoutePoints": [25], "NAME": "Student Activity Area", "POINT_ID": "P00072", "HOURS": null, "PHONE": null, "SUITE": "_autoSuite_243", "WEBSITE": null, "LEVEL_ID": "L001"}},
{"geometry": {"type": "Point", "coordinates": [103.77611778700003, 1.328814385000044]}, "type": "Feature", "properties": {"CATEGORY": "Eating/Drinking", "WEBSITE": null, "NAME": "Outdoor Dining", "POINT_ID": "P00073", "HOURS": null, "PHONE": null, "SUITE": "_autoSuite_243", "LEVEL_ID": "L001"}},
{"geometry": {"type": "Point", "coordinates": [103.77631997100008, 1.328863698000021]}, "type": "Feature", "properties": {"CATEGORY": "Entry", "WEBSITE": null, "NAME": "Entrance Foyer", "POINT_ID": "P00075", "HOURS": null, "PHONE": null, "SUITE": "_autoSuite_243", "LEVEL_ID": "L001"}},
{"geometry": {"type": "Point", "coordinates": [103.77670835700008, 1.3289369700000291]}, "type": "Feature", "properties": {"CATEGORY": "Lecture Theatre", "WEBSITE": "undefined", "NAME": "A.1.16", "POINT_ID": "P00076", "HOURS": "undefined", "PHONE": "undefined", "SUITE": "A.1.16", "LEVEL_ID": "L001"}},
{"geometry": {"type": "Point", "coordinates": [103.77662848700004, 1.3289735090000361]}, "type": "Feature", "properties": {"CATEGORY": "Changing Room", "WEBSITE": "undefined", "NAME": "A.1.16", "POINT_ID": "P00077", "HOURS": "undefined", "PHONE": "undefined", "SUITE": "_autoSuite_223", "LEVEL_ID": "L001"}},
{"geometry": {"type": "Point", "coordinates": [103.77649914500006, 1.3290824090000231]}, "type": "Feature", "properties": {"CATEGORY": "Lecture Theatre", "WEBSITE": "undefined", "NAME": "A.1.17", "POINT_ID": "P00078", "HOURS": "undefined", "PHONE": "undefined", "SUITE": "A.1.17", "LEVEL_ID": "L001"}},
{"geometry": {"type": "Point", "coordinates": [103.77630717700004, 1.3292530550000381]}, "type": "Feature", "properties": {"CATEGORY": "Lecture Theatre", "WEBSITE": "undefined", "NAME": "A.1.20", "POINT_ID": "P00079", "HOURS": "undefined", "PHONE": "undefined", "SUITE": "A.1.20", "LEVEL_ID": "L001"}},
{"geometry": {"type": "Point", "coordinates": [103.77681677400005, 1.329045801000063]}, "type": "Feature", "properties": {"CATEGORY": "Seminar Room", "WEBSITE": "undefined", "NAME": "A.1.15", "POINT_ID": "P00080", "HOURS": "undefined", "PHONE": "undefined", "SUITE": "A.1.15", "LEVEL_ID": "L001"}},
{"geometry": {"type": "Point", "coordinates": [103.77684183000008, 1.329111969000053]}, "type": "Feature", "properties": {"CATEGORY": "Seminar Room", "WEBSITE": "undefined", "NAME": "A.1.14", "POINT_ID": "P00081", "HOURS": "undefined", "PHONE": "undefined", "SUITE": "A.1.14", "LEVEL_ID": "L001"}},
{"geometry": {"type": "Point", "coordinates": [103.77696111600005, 1.329247844000065]}, "type": "Feature", "properties": {"CATEGORY": "Entry", "RoutePoints": [51], "NAME": "Entrance Plaza", "POINT_ID": "P00082", "HOURS": null, "PHONE": null, "SUITE": "_autoSuite_153", "WEBSITE": null, "LEVEL_ID": "L001"}},
{"geometry": {"type": "Point", "coordinates": [103.77697293800009, 1.329411884000024]}, "type": "Feature", "properties": {"CATEGORY": "Athletes Gym", "WEBSITE": "undefined", "NAME": "A.1.12", "POINT_ID": "P00083", "HOURS": "undefined", "PHONE": "undefined", "SUITE": "A.1.12", "LEVEL_ID": "L001"}},
{"geometry": {"type": "Point", "coordinates": [103.77700725600005, 1.3294748310000271]}, "type": "Feature", "properties": {"CATEGORY": "Seminar Room", "WEBSITE": "undefined", "NAME": "A.1.11", "POINT_ID": "P00084", "HOURS": "undefined", "PHONE": "undefined", "SUITE": "A.1.11", "LEVEL_ID": "L001"}},
{"geometry": {"type": "Point", "coordinates": [103.77700155300005, 1.329620171000045]}, "type": "Feature", "properties": {"CATEGORY": "Lecture Theatre", "WEBSITE": "undefined", "NAME": "A.1.10", "POINT_ID": "P00085", "HOURS": "undefined", "PHONE": "undefined", "SUITE": "A.1.10", "LEVEL_ID": "L001"}},
{"geometry": {"type": "Point", "coordinates": [103.77684773700008, 1.3296329510000651]}, "type": "Feature", "properties": {"CATEGORY": "Lecture Theatre", "WEBSITE": "undefined", "NAME": "A.1.09B", "POINT_ID": "P00086", "HOURS": "undefined", "PHONE": "undefined", "SUITE": "A.1.09B", "LEVEL_ID": "L001"}},
{"geometry": {"type": "Point", "coordinates": [103.77669009800007, 1.329710166000041]}, "type": "Feature", "properties": {"CATEGORY": "Lecture Theatre", "WEBSITE": "undefined", "NAME": "A.1.09A", "POINT_ID": "P00087", "HOURS": "undefined", "PHONE": "undefined", "SUITE": "A.1.09A", "LEVEL_ID": "L001"}},
{"geometry": {"type": "Point", "coordinates": [103.77653649700005, 1.3297502460000601]}, "type": "Feature", "properties": {"CATEGORY": "Lecture Theatre", "WEBSITE": "undefined", "NAME": "A.1.08", "POINT_ID": "P00088", "HOURS": "undefined", "PHONE": "undefined", "SUITE": "A.1.08", "LEVEL_ID": "L001"}},
{"geometry": {"type": "Point", "coordinates": [103.77566493600006, 1.3292709540000369]}, "type": "Feature", "properties": {"CATEGORY": "Recreation", "RoutePoints": [34], "NAME": "Interactive Lounge", "POINT_ID": "P00089", "HOURS": null, "PHONE": null, "SUITE": "_autoSuite_243", "WEBSITE": null, "LEVEL_ID": "L001"}},
{"geometry": {"type": "Point", "coordinates": [103.77624683800008, 1.329851551000047]}, "type": "Feature", "properties": {"CATEGORY": "Mailbox", "WEBSITE": "undefined", "NAME": "Mailbox", "POINT_ID": "P00118", "HOURS": "undefined", "PHONE": "undefined", "SUITE": "_autoSuite_377", "LEVEL_ID": "L002"}},
{"geometry": {"type": "Point", "coordinates": [103.77611919000009, 1.3297899280000249]}, "type": "Feature", "properties": {"CATEGORY": "Tender Box", "WEBSITE": "undefined", "NAME": "Tender Box", "POINT_ID": "P00119", "HOURS": "undefined", "PHONE": "undefined", "SUITE": "_autoSuite_377", "LEVEL_ID": "L002"}},
{"geometry": {"type": "Point", "coordinates": [103.77610142400005, 1.329746162000049]}, "type": "Feature", "properties": {"CATEGORY": "ATM", "WEBSITE": "undefined", "NAME": "ATM", "POINT_ID": "P00120", "HOURS": "undefined", "PHONE": "undefined", "SUITE": "_autoSuite_377", "LEVEL_ID": "L002"}},
{"geometry": {"type": "Point", "coordinates": [103.77621780200008, 1.329786640000066]}, "type": "Feature", "properties": {"CATEGORY": "Security", "WEBSITE": null, "NAME": "Security Counter", "POINT_ID": "P00121", "HOURS": null, "PHONE": null, "SUITE": "_autoSuite_377", "LEVEL_ID": "L002"}},
{"geometry": {"type": "Point", "coordinates": [103.77641461800005, 1.329741991000049]}, "type": "Feature", "properties": {"CATEGORY": "Gallery", "RoutePoints": [315], "NAME": "Heritage Gallery", "POINT_ID": "P00122", "HOURS": null, "PHONE": null, "SUITE": "_autoSuite_377", "WEBSITE": null, "LEVEL_ID": "L002"}},
{"geometry": {"type": "Point", "coordinates": [103.77636933100007, 1.329764828000066]}, "type": "Feature", "properties": {"CATEGORY": "Information", "WEBSITE": null, "NAME": "Information", "POINT_ID": "P00123", "HOURS": null, "PHONE": null, "SUITE": "_autoSuite_377", "LEVEL_ID": "L002"}},
{"geometry": {"type": "Point", "coordinates": [103.77583002900008, 1.329540157000054]}, "type": "Feature", "properties": {"CATEGORY": "Admin Office", "WEBSITE": "undefined", "NAME": "A.2.02B", "POINT_ID": "P00124", "HOURS": "undefined", "PHONE": "undefined", "SUITE": "A.2.02B", "LEVEL_ID": "L002"}},
{"geometry": {"type": "Point", "coordinates": [103.77589283300006, 1.329513539000061]}, "type": "Feature", "properties": {"CATEGORY": "Child Care", "WEBSITE": null, "NAME": "Child Care", "POINT_ID": "P00125", "HOURS": null, "PHONE": null, "SUITE": "Child Care", "LEVEL_ID": "L002"}},
{"geometry": {"type": "Point", "coordinates": [103.77596739400008, 1.32946765600002]}, "type": "Feature", "properties": {"CATEGORY": "Child Development Centre", "WEBSITE": null, "NAME": "A.2.02A", "POINT_ID": "P00126", "HOURS": null, "PHONE": null, "SUITE": "A.2.02A", "LEVEL_ID": "L002"}},
{"geometry": {"type": "Point", "coordinates": [103.77610397200004, 1.3293996760000371]}, "type": "Feature", "properties": {"CATEGORY": "Admin Office Student Services", "WEBSITE": "undefined", "NAME": "A.2.01B", "POINT_ID": "P00127", "HOURS": "undefined", "PHONE": "undefined", "SUITE": "A.2.01B", "LEVEL_ID": "L002"}},
{"geometry": {"type": "Point", "coordinates": [103.77618642600004, 1.32935857700005]}, "type": "Feature", "properties": {"CATEGORY": "Admin Office Student Services", "WEBSITE": "undefined", "NAME": "A.2.01A", "POINT_ID": "P00128", "HOURS": "undefined", "PHONE": "undefined", "SUITE": "A.2.01A", "LEVEL_ID": "L002"}},
{"geometry": {"type": "Point", "coordinates": [103.77614781200003, 1.329911078000066]}, "type": "Feature", "properties": {"CATEGORY": "Student Recruitment & Payments", "WEBSITE": "undefined", "NAME": "A.2.05 Student Recruitment and Payment Services", "POINT_ID": "P00129", "HOURS": "undefined", "PHONE": "undefined", "SUITE": "A.2.05", "LEVEL_ID": "L002"}},
{"geometry": {"type": "Point", "coordinates": [103.77536952600008, 1.329229594000026]}, "type": "Feature", "properties": {"CATEGORY": "Seminar Room", "WEBSITE": "undefined", "NAME": "B.2.10", "POINT_ID": "P00131", "HOURS": "undefined", "PHONE": "undefined", "SUITE": "B.2.10", "LEVEL_ID": "L002"}},
{"geometry": {"type": "Point", "coordinates": [103.77546089700007, 1.329181410000047]}, "type": "Feature", "properties": {"CATEGORY": "Seminar Room", "WEBSITE": "undefined", "NAME": "B.2.09", "POINT_ID": "P00132", "HOURS": "undefined", "PHONE": "undefined", "SUITE": "B.2.09", "LEVEL_ID": "L002"}},
{"geometry": {"type": "Point", "coordinates": [103.77555976400004, 1.3291392940000719]}, "type": "Feature", "properties": {"CATEGORY": "Seminar Room", "WEBSITE": "undefined", "NAME": "B.2.08", "POINT_ID": "P00133", "HOURS": "undefined", "PHONE": "undefined", "SUITE": "B.2.08", "LEVEL_ID": "L002"}},
{"geometry": {"type": "Point", "coordinates": [103.77564292600005, 1.3290943220000599]}, "type": "Feature", "properties": {"CATEGORY": "Seminar Room", "WEBSITE": "undefined", "NAME": "B.2.07", "POINT_ID": "P00134", "HOURS": "undefined", "PHONE": "undefined", "SUITE": "B.2.07", "LEVEL_ID": "L002"}},
{"geometry": {"type": "Point", "coordinates": [103.77580318200006, 1.3290547030000539]}, "type": "Feature", "properties": {"CATEGORY": "Lecture Theatre", "WEBSITE": "undefined", "NAME": "B.2.06", "POINT_ID": "P00135", "HOURS": "undefined", "PHONE": "undefined", "SUITE": "B.2.06", "LEVEL_ID": "L002"}},
{"geometry": {"type": "Point", "coordinates": [103.77593952500007, 1.329007947000036]}, "type": "Feature", "properties": {"CATEGORY": "Lecture Theatre", "WEBSITE": "undefined", "NAME": "B.2.05", "POINT_ID": "P00136", "HOURS": "undefined", "PHONE": "undefined", "SUITE": "B.2.05", "LEVEL_ID": "L002"}},
{"geometry": {"type": "Point", "coordinates": [103.77603375200005, 1.3289676150000671]}, "type": "Feature", "properties": {"CATEGORY": "Lecture Theatre", "WEBSITE": "undefined", "NAME": "B.2.04", "POINT_ID": "P00137", "HOURS": "undefined", "PHONE": "undefined", "SUITE": "B.2.04", "LEVEL_ID": "L002"}},
{"geometry": {"type": "Point", "coordinates": [103.77615897400005, 1.328875542000048]}, "type": "Feature", "properties": {"CATEGORY": "Lecture Theatre", "WEBSITE": "undefined", "NAME": "B.2.03", "POINT_ID": "P00138", "HOURS": "undefined", "PHONE": "undefined", "SUITE": "B.2.03", "LEVEL_ID": "L002"}},
{"geometry": {"type": "Point", "coordinates": [103.77624125300008, 1.3290676780000581]}, "type": "Feature", "properties": {"CATEGORY": "Lecture Theatre", "WEBSITE": "undefined", "NAME": "B.2.01", "POINT_ID": "P00139", "HOURS": "undefined", "PHONE": "undefined", "SUITE": "B.2.01", "LEVEL_ID": "L002"}},
{"geometry": {"type": "Point", "coordinates": [103.77631263700005, 1.32923543000004]}, "type": "Feature", "properties": {"CATEGORY": "Lecture Theatre", "WEBSITE": "undefined", "NAME": "A.2.20", "POINT_ID": "P00140", "HOURS": "undefined", "PHONE": "undefined", "SUITE": "A.2.20", "LEVEL_ID": "L002"}},
{"geometry": {"type": "Point", "coordinates": [103.77671571800005, 1.3289320490000589]}, "type": "Feature", "properties": {"CATEGORY": "Lecture Theatre", "WEBSITE": "undefined", "NAME": "A.2.16", "POINT_ID": "P00141", "HOURS": "undefined", "PHONE": "undefined", "SUITE": "A.2.16", "LEVEL_ID": "L002"}},
{"geometry": {"type": "Point", "coordinates": [103.77684369900004, 1.329108633000033]}, "type": "Feature", "properties": {"CATEGORY": "Seminar Room", "WEBSITE": "undefined", "NAME": "A.2.14", "POINT_ID": "P00142", "HOURS": "undefined", "PHONE": "undefined", "SUITE": "A.2.14", "LEVEL_ID": "L002"}},
{"geometry": {"type": "Point", "coordinates": [103.77682847100004, 1.3290477190000729]}, "type": "Feature", "properties": {"CATEGORY": "Seminar Room", "WEBSITE": "undefined", "NAME": "A.2.15", "POINT_ID": "P00143", "HOURS": "undefined", "PHONE": "undefined", "SUITE": "A.2.15", "LEVEL_ID": "L002"}},
{"geometry": {"type": "Point", "coordinates": [103.77648874900007, 1.329212769000037]}, "type": "Feature", "properties": {"CATEGORY": "Seminar Room", "WEBSITE": "undefined", "NAME": "A.2.17C", "POINT_ID": "P00144", "HOURS": "undefined", "PHONE": "undefined", "SUITE": "A.2.17C", "LEVEL_ID": "L002"}},
{"geometry": {"type": "Point", "coordinates": [103.77657300600004, 1.329190293000067]}, "type": "Feature", "properties": {"CATEGORY": "Lecture Theatre", "WEBSITE": "undefined", "NAME": "A.2.17.B", "POINT_ID": "P00145", "HOURS": "undefined", "PHONE": "undefined", "SUITE": "A.2.17B", "LEVEL_ID": "L002"}},
{"geometry": {"type": "Point", "coordinates": [103.77667291900008, 1.329143288000068]}, "type": "Feature", "properties": {"CATEGORY": "Lecture Theatre", "WEBSITE": "undefined", "NAME": "A.2.17A", "POINT_ID": "P00146", "HOURS": "undefined", "PHONE": "undefined", "SUITE": "A.2.17A", "LEVEL_ID": "L002"}},
{"geometry": {"type": "Point", "coordinates": [103.77608963400007, 1.3292345010000299]}, "type": "Feature", "properties": {"CATEGORY": "Lecture Theatre", "WEBSITE": "undefined", "NAME": "B.2.17", "POINT_ID": "P00147", "HOURS": "undefined", "PHONE": "undefined", "SUITE": "B.2.17", "LEVEL_ID": "L002"}},
{"geometry": {"type": "Point", "coordinates": [103.77588678400008, 1.3292434570000751]}, "type": "Feature", "properties": {"CATEGORY": "Lecture Theatre", "WEBSITE": "undefined", "NAME": "B.2.16", "POINT_ID": "P00148", "HOURS": "undefined", "PHONE": "undefined", "SUITE": "B.2.16", "LEVEL_ID": "L002"}},
{"geometry": {"type": "Point", "coordinates": [103.77594506500009, 1.3293144170000351]}, "type": "Feature", "properties": {"CATEGORY": "Principal Office", "WEBSITE": null, "NAME": "Principal Office", "POINT_ID": "P00149", "HOURS": null, "PHONE": null, "SUITE": "_autoSuite_301", "LEVEL_ID": "L002"}},
{"geometry": {"type": "Point", "coordinates": [103.77555829100004, 1.329483738000022]}, "type": "Feature", "properties": {"CATEGORY": "Copier", "WEBSITE": null, "NAME": "Photocopying Room", "POINT_ID": "P00151", "HOURS": null, "PHONE": null, "SUITE": "_autoSuite_284", "LEVEL_ID": "L002"}},
{"geometry": {"type": "Point", "coordinates": [103.77553158600006, 1.329558245000044]}, "type": "Feature", "properties": {"CATEGORY": "Office", "WEBSITE": null, "NAME": "Office", "POINT_ID": "P00153", "HOURS": null, "PHONE": null, "SUITE": "_autoSuite_283", "LEVEL_ID": "L002"}},
{"geometry": {"type": "Point", "coordinates": [103.77551730900007, 1.329484958000023]}, "type": "Feature", "properties": {"CATEGORY": "Office", "WEBSITE": null, "NAME": "Office", "POINT_ID": "P00154", "HOURS": null, "PHONE": null, "SUITE": "_autoSuite_364", "LEVEL_ID": "L002"}},
{"geometry": {"type": "Point", "coordinates": [103.77551788000005, 1.3293649850000411]}, "type": "Feature", "properties": {"CATEGORY": "Seminar Room", "WEBSITE": "undefined", "NAME": "B.2.11", "POINT_ID": "P00158", "HOURS": "undefined", "PHONE": "undefined", "SUITE": "B.2.11", "LEVEL_ID": "L002"}},
{"geometry": {"type": "Point", "coordinates": [103.77555119200008, 1.3293223450000371]}, "type": "Feature", "properties": {"CATEGORY": "Seminar Room", "WEBSITE": "undefined", "NAME": "B.2.12", "POINT_ID": "P00159", "HOURS": "undefined", "PHONE": "undefined", "SUITE": "B.2.12", "LEVEL_ID": "L002"}},
{"geometry": {"type": "Point", "coordinates": [103.77560829900006, 1.329297218000022]}, "type": "Feature", "properties": {"CATEGORY": "Seminar Room", "WEBSITE": "undefined", "NAME": "B.2.13", "POINT_ID": "P00160", "HOURS": "undefined", "PHONE": "undefined", "SUITE": "B.2.13", "LEVEL_ID": "L002"}},
{"geometry": {"type": "Point", "coordinates": [103.77565626900008, 1.329312256000037]}, "type": "Feature", "properties": {"CATEGORY": "Seminar Room", "WEBSITE": "undefined", "NAME": "B.2.14", "POINT_ID": "P00161", "HOURS": "undefined", "PHONE": "undefined", "SUITE": "B.2.14", "LEVEL_ID": "L002"}},
{"geometry": {"type": "Point", "coordinates": [103.77571068800006, 1.329255280000041]}, "type": "Feature", "properties": {"CATEGORY": "Laboratory", "WEBSITE": "undefined", "NAME": "B.2.15", "POINT_ID": "P00162", "HOURS": "undefined", "PHONE": "undefined", "SUITE": "B.2.15", "LEVEL_ID": "L002"}},
{"geometry": {"type": "Point", "coordinates": [103.77601144600004, 1.329545061000033]}, "type": "Feature", "properties": {"CATEGORY": "Assignment Boxes", "WEBSITE": null, "NAME": "Assignment Boxes", "POINT_ID": "P00163", "HOURS": null, "PHONE": null, "SUITE": "_autoSuite_377", "LEVEL_ID": "L002"}},
{"geometry": {"type": "Point", "coordinates": [103.77615200300005, 1.329824546000054]}, "type": "Feature", "properties": {"CATEGORY": "Meeting Room", "WEBSITE": null, "NAME": "Meeting Room", "POINT_ID": "P00164", "HOURS": null, "PHONE": null, "SUITE": "_autoSuite_267", "LEVEL_ID": "L002"}},
{"geometry": {"type": "Point", "coordinates": [103.77619407200007, 1.3298110300000301]}, "type": "Feature", "properties": {"CATEGORY": null, "WEBSITE": null, "NAME": "FCC Room", "POINT_ID": "P00165", "HOURS": null, "PHONE": null, "SUITE": "_autoSuite_269", "LEVEL_ID": "L002"}},
{"geometry": {"type": "Point", "coordinates": [103.77654510200006, 1.329758753000021]}, "type": "Feature", "properties": {"CATEGORY": "Lecture Theatre", "WEBSITE": null, "NAME": "A.2.08", "POINT_ID": "P00166", "HOURS": null, "PHONE": null, "SUITE": "A.2.08", "LEVEL_ID": "L002"}},
{"geometry": {"type": "Point", "coordinates": [103.77666820700006, 1.329613283000072]}, "type": "Feature", "properties": {"CATEGORY": "Seminar Room", "WEBSITE": "undefined", "NAME": "A.2.09A", "POINT_ID": "P00167", "HOURS": "undefined", "PHONE": "undefined", "SUITE": "A.2.09A", "LEVEL_ID": "L002"}},
{"geometry": {"type": "Point", "coordinates": [103.77674697000003, 1.3295733460000749]}, "type": "Feature", "properties": {"CATEGORY": "Lecture Theatre", "WEBSITE": "undefined", "NAME": "A.2.09B", "POINT_ID": "P00168", "HOURS": "undefined", "PHONE": "undefined", "SUITE": "A.2.09B", "LEVEL_ID": "L002"}},
{"geometry": {"type": "Point", "coordinates": [103.77684897300009, 1.329534956000032]}, "type": "Feature", "properties": {"CATEGORY": "Lecture Theatre", "WEBSITE": "undefined", "NAME": "A.2.09C", "POINT_ID": "P00169", "HOURS": "undefined", "PHONE": "undefined", "SUITE": "A.2.09C", "LEVEL_ID": "L002"}},
{"geometry": {"type": "Point", "coordinates": [103.77699073100007, 1.3294065510000339]}, "type": "Feature", "properties": {"CATEGORY": "Seminar Room", "WEBSITE": "undefined", "NAME": "A.2.12", "POINT_ID": "P00170", "HOURS": "undefined", "PHONE": "undefined", "SUITE": "A.2.12", "LEVEL_ID": "L002"}},
{"geometry": {"type": "Point", "coordinates": [103.77701250300004, 1.329470083000047]}, "type": "Feature", "properties": {"CATEGORY": "Seminar Room", "WEBSITE": "undefined", "NAME": "A.2.11", "POINT_ID": "P00171", "HOURS": "undefined", "PHONE": "undefined", "SUITE": "A.2.11", "LEVEL_ID": "L002"}},
{"geometry": {"type": "Point", "coordinates": [103.77702405900004, 1.3296348800000719]}, "type": "Feature", "properties": {"CATEGORY": "Lecture Theatre", "WEBSITE": "undefined", "NAME": "A.2.10", "POINT_ID": "P00173", "HOURS": "undefined", "PHONE": "undefined", "SUITE": "A.2.10", "LEVEL_ID": "L002"}},
{"geometry": {"type": "Point", "coordinates": [103.77595070000007, 1.32972279400002]}, "type": "Feature", "properties": {"CATEGORY": "Koi Pond", "RoutePoints": [312], "NAME": "Koi Pond", "POINT_ID": "P00174", "HOURS": "undefined", "PHONE": "undefined", "SUITE": "_autoSuite_377", "WEBSITE": "undefined", "LEVEL_ID": "L002"}},
{"geometry": {"type": "Point", "coordinates": [103.77635572800006, 1.3298189110000751]}, "type": "Feature", "properties": {"CATEGORY": "Entry", "WEBSITE": null, "NAME": "Entry", "POINT_ID": "P00175", "HOURS": null, "PHONE": null, "SUITE": "_autoSuite_377", "LEVEL_ID": "L002"}},
{"geometry": {"type": "Point", "coordinates": [103.77536763600006, 1.329230480000035]}, "type": "Feature", "properties": {"CATEGORY": "Seminar Room", "WEBSITE": "undefined", "NAME": "B.3.10", "POINT_ID": "P00176", "HOURS": "undefined", "PHONE": "undefined", "SUITE": "B.3.10", "LEVEL_ID": "L003"}},
{"geometry": {"type": "Point", "coordinates": [103.77546128900008, 1.3291887030000571]}, "type": "Feature", "properties": {"CATEGORY": "Seminar Room", "WEBSITE": "undefined", "NAME": "B.3.09", "POINT_ID": "P00177", "HOURS": "undefined", "PHONE": "undefined", "SUITE": "B.3.09", "LEVEL_ID": "L003"}},
{"geometry": {"type": "Point", "coordinates": [103.77555211300006, 1.3291434550000649]}, "type": "Feature", "properties": {"CATEGORY": "Seminar Room", "WEBSITE": "undefined", "NAME": "B.3.08", "POINT_ID": "P00178", "HOURS": "undefined", "PHONE": "undefined", "SUITE": "B.3.08", "LEVEL_ID": "L003"}},
{"geometry": {"type": "Point", "coordinates": [103.77564725600007, 1.3290978280000449]}, "type": "Feature", "properties": {"CATEGORY": "Seminar Room", "WEBSITE": "undefined", "NAME": "B.3.07", "POINT_ID": "P00179", "HOURS": "undefined", "PHONE": "undefined", "SUITE": "B.3.07", "LEVEL_ID": "L003"}},
{"geometry": {"type": "Point", "coordinates": [103.77551396600006, 1.3293665060000419]}, "type": "Feature", "properties": {"CATEGORY": "Seminar Room", "WEBSITE": "undefined", "NAME": "B.3.11", "POINT_ID": "P00180", "HOURS": "undefined", "PHONE": "undefined", "SUITE": "B.3.11", "LEVEL_ID": "L003"}},
{"geometry": {"type": "Point", "coordinates": [103.77554281400006, 1.3293199930000701]}, "type": "Feature", "properties": {"CATEGORY": "Seminar Room", "WEBSITE": "undefined", "NAME": "B.3.12", "POINT_ID": "P00181", "HOURS": "undefined", "PHONE": "undefined", "SUITE": "B.3.12", "LEVEL_ID": "L003"}},
{"geometry": {"type": "Point", "coordinates": [103.77560167200005, 1.3293001590000699]}, "type": "Feature", "properties": {"CATEGORY": "Seminar Room", "WEBSITE": "undefined", "NAME": "B.3.13", "POINT_ID": "P00182", "HOURS": "undefined", "PHONE": "undefined", "SUITE": "B.3.13", "LEVEL_ID": "L003"}},
{"geometry": {"type": "Point", "coordinates": [103.77565126600007, 1.3292953640000751]}, "type": "Feature", "properties": {"CATEGORY": "Seminar Room", "WEBSITE": "undefined", "NAME": "B.3.14", "POINT_ID": "P00183", "HOURS": "undefined", "PHONE": "undefined", "SUITE": "B.3.14", "LEVEL_ID": "L003"}},
{"geometry": {"type": "Point", "coordinates": [103.77611618500003, 1.3294093110000631]}, "type": "Feature", "properties": {"CATEGORY": "Seminar Room", "WEBSITE": "undefined", "NAME": "A.3.01B", "POINT_ID": "P00184", "HOURS": "undefined", "PHONE": "undefined", "SUITE": "A.3.01B", "LEVEL_ID": "L003"}},
{"geometry": {"type": "Point", "coordinates": [103.77620936400007, 1.3293646260000289]}, "type": "Feature", "properties": {"CATEGORY": "Seminar Room", "WEBSITE": "undefined", "NAME": "A.3.01A", "POINT_ID": "P00185", "HOURS": "undefined", "PHONE": "undefined", "SUITE": "A.3.01A", "LEVEL_ID": "L003"}},
{"geometry": {"type": "Point", "coordinates": [103.77648748000007, 1.3292118210000581]}, "type": "Feature", "properties": {"CATEGORY": "Seminar Room", "WEBSITE": "undefined", "NAME": "A.3.17C", "POINT_ID": "P00186", "HOURS": "undefined", "PHONE": "undefined", "SUITE": "A.3.17C", "LEVEL_ID": "L003"}},
{"geometry": {"type": "Point", "coordinates": [103.77682313400004, 1.3290533590000559]}, "type": "Feature", "properties": {"CATEGORY": "Seminar Room", "WEBSITE": "undefined", "NAME": "A.3.15", "POINT_ID": "P00187", "HOURS": "undefined", "PHONE": "undefined", "SUITE": "A.3.15", "LEVEL_ID": "L003"}},
{"geometry": {"type": "Point", "coordinates": [103.77684974400006, 1.3291152290000241]}, "type": "Feature", "properties": {"CATEGORY": "Seminar Room", "WEBSITE": "undefined", "NAME": "A.3.14", "POINT_ID": "P00188", "HOURS": "undefined", "PHONE": "undefined", "SUITE": "A.3.14", "LEVEL_ID": "L003"}},
{"geometry": {"type": "Point", "coordinates": [103.77701166000008, 1.3294778630000219]}, "type": "Feature", "properties": {"CATEGORY": "Seminar Room", "WEBSITE": "undefined", "NAME": "A.3.11", "POINT_ID": "P00189", "HOURS": "undefined", "PHONE": "undefined", "SUITE": "A.3.11", "LEVEL_ID": "L003"}},
{"geometry": {"type": "Point", "coordinates": [103.77698834500006, 1.329414706000023]}, "type": "Feature", "properties": {"CATEGORY": "Seminar Room", "WEBSITE": "undefined", "NAME": "A.3.12", "POINT_ID": "P00190", "HOURS": "undefined", "PHONE": "undefined", "SUITE": "A.3.12", "LEVEL_ID": "L003"}},
{"geometry": {"type": "Point", "coordinates": [103.77667531600008, 1.3296216420000631]}, "type": "Feature", "properties": {"CATEGORY": "Seminar Room", "WEBSITE": "undefined", "NAME": "A.3.09A", "POINT_ID": "P00191", "HOURS": "undefined", "PHONE": "undefined", "SUITE": "A.3.09A", "LEVEL_ID": "L003"}},
{"geometry": {"type": "Point", "coordinates": [103.77580290500003, 1.329055476000065]}, "type": "Feature", "properties": {"CATEGORY": "Lecture Theatre", "WEBSITE": "undefined", "NAME": "B.3.06", "POINT_ID": "P00192", "HOURS": "undefined", "PHONE": "undefined", "SUITE": "B.3.06", "LEVEL_ID": "L003"}},
{"geometry": {"type": "Point", "coordinates": [103.77594355800005, 1.329015994000031]}, "type": "Feature", "properties": {"CATEGORY": "Lecture Theatre", "WEBSITE": "undefined", "NAME": "B.3.05", "POINT_ID": "P00193", "HOURS": "undefined", "PHONE": "undefined", "SUITE": "B.3.05", "LEVEL_ID": "L003"}},
{"geometry": {"type": "Point", "coordinates": [103.77603230000005, 1.3289754980000339]}, "type": "Feature", "properties": {"CATEGORY": "Lecture Theatre", "WEBSITE": "undefined", "NAME": "B.3.04", "POINT_ID": "P00194", "HOURS": "undefined", "PHONE": "undefined", "SUITE": "B.3.04", "LEVEL_ID": "L003"}},
{"geometry": {"type": "Point", "coordinates": [103.77614921200006, 1.3288882250000711]}, "type": "Feature", "properties": {"CATEGORY": "Lecture Theatre", "WEBSITE": "undefined", "NAME": "B.3.03", "POINT_ID": "P00195", "HOURS": "undefined", "PHONE": "undefined", "SUITE": "B.3.03", "LEVEL_ID": "L003"}},
{"geometry": {"type": "Point", "coordinates": [103.77624152200008, 1.32908098200005]}, "type": "Feature", "properties": {"CATEGORY": "Lecture Theatre", "WEBSITE": "undefined", "NAME": "B.3.01", "POINT_ID": "P00196", "HOURS": "undefined", "PHONE": "undefined", "SUITE": "B.3.01", "LEVEL_ID": "L003"}},
{"geometry": {"type": "Point", "coordinates": [103.77630357100008, 1.329230812000048]}, "type": "Feature", "properties": {"CATEGORY": "Lecture Theatre", "WEBSITE": "undefined", "NAME": "A.3.20", "POINT_ID": "P00197", "HOURS": "undefined", "PHONE": "undefined", "SUITE": "A.3.20", "LEVEL_ID": "L003"}},
{"geometry": {"type": "Point", "coordinates": [103.77609417100007, 1.329240703000039]}, "type": "Feature", "properties": {"CATEGORY": "Lecture Theatre", "WEBSITE": "undefined", "NAME": "B.3.17", "POINT_ID": "P00198", "HOURS": "undefined", "PHONE": "undefined", "SUITE": "B.3.17", "LEVEL_ID": "L003"}},
{"geometry": {"type": "Point", "coordinates": [103.77595215500008, 1.3294016920000331]}, "type": "Feature", "properties": {"CATEGORY": "Lecture Theatre", "WEBSITE": "undefined", "NAME": "A.3.02A", "POINT_ID": "P00199", "HOURS": "undefined", "PHONE": "undefined", "SUITE": "A.3.02A", "LEVEL_ID": "L003"}},
{"geometry": {"type": "Point", "coordinates": [103.77587497700006, 1.329249696000034]}, "type": "Feature", "properties": {"CATEGORY": "Lecture Theatre", "WEBSITE": "undefined", "NAME": "B.3.16", "POINT_ID": "P00200", "HOURS": "undefined", "PHONE": "undefined", "SUITE": "B.3.16", "LEVEL_ID": "L003"}},
{"geometry": {"type": "Point", "coordinates": [103.77619028100008, 1.3299256380000199]}, "type": "Feature", "properties": {"CATEGORY": "Lecture Theatre", "WEBSITE": "undefined", "NAME": "A.3.05C", "POINT_ID": "P00201", "HOURS": "undefined", "PHONE": "undefined", "SUITE": "A.3.05C", "LEVEL_ID": "L003"}},
{"geometry": {"type": "Point", "coordinates": [103.77653986000007, 1.329759495000076]}, "type": "Feature", "properties": {"CATEGORY": "Lecture Theatre", "WEBSITE": "undefined", "NAME": "A.3.08", "POINT_ID": "P00202", "HOURS": "undefined", "PHONE": "undefined", "SUITE": "A.3.08", "LEVEL_ID": "L003"}},
{"geometry": {"type": "Point", "coordinates": [103.77674769100008, 1.329585247000068]}, "type": "Feature", "properties": {"CATEGORY": "Lecture Theatre", "WEBSITE": "undefined", "NAME": "A.3.09B", "POINT_ID": "P00203", "HOURS": "undefined", "PHONE": "undefined", "SUITE": "A.3.09B", "LEVEL_ID": "L003"}},
{"geometry": {"type": "Point", "coordinates": [103.77684011500008, 1.3295363600000201]}, "type": "Feature", "properties": {"CATEGORY": "Lecture Theatre", "WEBSITE": "undefined", "NAME": "A.3.09C", "POINT_ID": "P00204", "HOURS": "undefined", "PHONE": "undefined", "SUITE": "A.3.09C", "LEVEL_ID": "L003"}},
{"geometry": {"type": "Point", "coordinates": [103.77702377100007, 1.3296461260000569]}, "type": "Feature", "properties": {"CATEGORY": "Lecture Theatre", "WEBSITE": "undefined", "NAME": "A.3.10", "POINT_ID": "P00205", "HOURS": "undefined", "PHONE": "undefined", "SUITE": "A.3.10", "LEVEL_ID": "L003"}},
{"geometry": {"type": "Point", "coordinates": [103.77666581100004, 1.329140669000026]}, "type": "Feature", "properties": {"CATEGORY": "Lecture Theatre", "WEBSITE": "undefined", "NAME": "A.3.17A", "POINT_ID": "P00206", "HOURS": "undefined", "PHONE": "undefined", "SUITE": "A.3.17A", "LEVEL_ID": "L003"}},
{"geometry": {"type": "Point", "coordinates": [103.77656697300006, 1.3291880670000751]}, "type": "Feature", "properties": {"CATEGORY": "Lecture Theatre", "WEBSITE": "undefined", "NAME": "A.3.17B", "POINT_ID": "P00207", "HOURS": "undefined", "PHONE": "undefined", "SUITE": "A.3.17B", "LEVEL_ID": "L003"}},
{"geometry": {"type": "Point", "coordinates": [103.77670459300003, 1.328926881000029]}, "type": "Feature", "properties": {"CATEGORY": "Lecture Theatre", "WEBSITE": "undefined", "NAME": "A.3.16", "POINT_ID": "P00208", "HOURS": "undefined", "PHONE": "undefined", "SUITE": "A.3.16", "LEVEL_ID": "L003"}},
{"geometry": {"type": "Point", "coordinates": [103.77565491800004, 1.329724910000039]}, "type": "Feature", "properties": {"CATEGORY": "Food Court", "WEBSITE": null, "NAME": "A.3.02C - Food Court", "POINT_ID": "P00209", "HOURS": null, "PHONE": null, "SUITE": "A.3.02C", "LEVEL_ID": "L003"}},
{"geometry": {"type": "Point", "coordinates": [103.77574944400004, 1.3299725120000401]}, "type": "Feature", "properties": {"CATEGORY": "Cafeteria", "WEBSITE": null, "NAME": "A.3.02D - Cafeteria", "POINT_ID": "P00210", "HOURS": null, "PHONE": null, "SUITE": "A.3.02D", "LEVEL_ID": "L003"}},
{"geometry": {"type": "Point", "coordinates": [103.77571527200007, 1.3292518140000309]}, "type": "Feature", "properties": {"CATEGORY": "Laboratory", "WEBSITE": "undefined", "NAME": "B.3.15", "POINT_ID": "P00214", "HOURS": "undefined", "PHONE": "undefined", "SUITE": "B.3.15", "LEVEL_ID": "L003"}},
{"geometry": {"type": "Point", "coordinates": [103.77600832900004, 1.3299441460000589]}, "type": "Feature", "properties": {"CATEGORY": "Dining Room", "WEBSITE": null, "NAME": "A.3.05A", "POINT_ID": "P00215", "HOURS": null, "PHONE": null, "SUITE": "A.3.05A", "LEVEL_ID": "L003"}},
{"geometry": {"type": "Point", "coordinates": [103.77606977000005, 1.3299093820000389]}, "type": "Feature", "properties": {"CATEGORY": "C Three (Counselling and Care Corner)", "WEBSITE": "undefined", "NAME": "A.3.05B", "POINT_ID": "P00216", "HOURS": "undefined", "PHONE": "undefined", "SUITE": "A.3.05B", "LEVEL_ID": "L003"}},
{"geometry": {"type": "Point", "coordinates": [103.77542637800008, 1.3293947880000589]}, "type": "Feature", "properties": {"CATEGORY": "Lockers", "WEBSITE": null, "NAME": "Lockers", "POINT_ID": "P00218", "HOURS": null, "PHONE": null, "SUITE": "_autoSuite_476", "LEVEL_ID": "L003"}},
{"geometry": {"type": "Point", "coordinates": [103.77537367700006, 1.3292331870000571]}, "type": "Feature", "properties": {"CATEGORY": "Seminar Room", "WEBSITE": "undefined", "NAME": "B.5.10", "POINT_ID": "P00222", "HOURS": "undefined", "PHONE": "undefined", "SUITE": "B.5.10", "LEVEL_ID": "L005"}},
{"geometry": {"type": "Point", "coordinates": [103.77547420100007, 1.32918561200006]}, "type": "Feature", "properties": {"CATEGORY": "Seminar Room", "WEBSITE": "undefined", "NAME": "B.5.09", "POINT_ID": "P00223", "HOURS": "undefined", "PHONE": "undefined", "SUITE": "B.5.09", "LEVEL_ID": "L005"}},
{"geometry": {"type": "Point", "coordinates": [103.77556300000001, 1.3291477940000509]}, "type": "Feature", "properties": {"CATEGORY": "Seminar Room", "WEBSITE": "undefined", "NAME": "B.5.08", "POINT_ID": "P00224", "HOURS": "undefined", "PHONE": "undefined", "SUITE": "B.5.08", "LEVEL_ID": "L005"}},
{"geometry": {"type": "Point", "coordinates": [103.77565003900008, 1.3291011300000259]}, "type": "Feature", "properties": {"CATEGORY": "Seminar Room", "WEBSITE": "undefined", "NAME": "B.5.07", "POINT_ID": "P00225", "HOURS": "undefined", "PHONE": "undefined", "SUITE": "B.5.07", "LEVEL_ID": "L005"}},
{"geometry": {"type": "Point", "coordinates": [103.77550444500008, 1.329361466000023]}, "type": "Feature", "properties": {"CATEGORY": "Seminar Room", "WEBSITE": "undefined", "NAME": "B.5.11", "POINT_ID": "P00226", "HOURS": "undefined", "PHONE": "undefined", "SUITE": "B.5.11", "LEVEL_ID": "L005"}},
{"geometry": {"type": "Point", "coordinates": [103.77555166100007, 1.3293217760000291]}, "type": "Feature", "properties": {"CATEGORY": "Seminar Room", "WEBSITE": "undefined", "NAME": "B.5.12", "POINT_ID": "P00227", "HOURS": "undefined", "PHONE": "undefined", "SUITE": "B.5.12", "LEVEL_ID": "L005"}},
{"geometry": {"type": "Point", "coordinates": [103.77559778100004, 1.329297132000022]}, "type": "Feature", "properties": {"CATEGORY": "Seminar Room", "WEBSITE": "undefined", "NAME": "B.5.13", "POINT_ID": "P00228", "HOURS": "undefined", "PHONE": "undefined", "SUITE": "B.5.13", "LEVEL_ID": "L005"}},
{"geometry": {"type": "Point", "coordinates": [103.77565415700008, 1.32929408900003]}, "type": "Feature", "properties": {"CATEGORY": "Seminar Room", "WEBSITE": "undefined", "NAME": "B.5.14", "POINT_ID": "P00229", "HOURS": "undefined", "PHONE": "undefined", "SUITE": "B.5.14", "LEVEL_ID": "L005"}},
{"geometry": {"type": "Point", "coordinates": [103.77580588000006, 1.3290564700000691]}, "type": "Feature", "properties": {"CATEGORY": "Lecture Theatre", "WEBSITE": "undefined", "NAME": "B.5.06", "POINT_ID": "P00230", "HOURS": "undefined", "PHONE": "undefined", "SUITE": "B.5.06", "LEVEL_ID": "L005"}},
{"geometry": {"type": "Point", "coordinates": [103.77615063600007, 1.3288891190000529]}, "type": "Feature", "properties": {"CATEGORY": "Lecture Theatre", "WEBSITE": "undefined", "NAME": "B.5.03", "POINT_ID": "P00231", "HOURS": "undefined", "PHONE": "undefined", "SUITE": "B.5.03", "LEVEL_ID": "L005"}},
{"geometry": {"type": "Point", "coordinates": [103.77603659300007, 1.328977905000045]}, "type": "Feature", "properties": {"CATEGORY": "Lecture Theatre", "WEBSITE": "undefined", "NAME": "B.5.04", "POINT_ID": "P00232", "HOURS": "undefined", "PHONE": "undefined", "SUITE": "B.5.04", "LEVEL_ID": "L005"}},
{"geometry": {"type": "Point", "coordinates": [103.77594352700004, 1.3290248090000321]}, "type": "Feature", "properties": {"CATEGORY": "Lecture Theatre", "WEBSITE": "undefined", "NAME": "B.5.05", "POINT_ID": "P00233", "HOURS": "undefined", "PHONE": "undefined", "SUITE": "B.5.05", "LEVEL_ID": "L005"}},
{"geometry": {"type": "Point", "coordinates": [103.77588351100007, 1.329256565000037]}, "type": "Feature", "properties": {"CATEGORY": "Lecture Theatre", "WEBSITE": "undefined", "NAME": "B.5.16", "POINT_ID": "P00234", "HOURS": "undefined", "PHONE": "undefined", "SUITE": "B.5.16", "LEVEL_ID": "L005"}},
{"geometry": {"type": "Point", "coordinates": [103.77623714800006, 1.3290880270000689]}, "type": "Feature", "properties": {"CATEGORY": "Lecture Theatre", "WEBSITE": "undefined", "NAME": "B.5.01", "POINT_ID": "P00235", "HOURS": "undefined", "PHONE": "undefined", "SUITE": "B.5.01", "LEVEL_ID": "L005"}},
{"geometry": {"type": "Point", "coordinates": [103.77684148000009, 1.329114125000046]}, "type": "Feature", "properties": {"CATEGORY": "Laboratory", "WEBSITE": "undefined", "NAME": "A.5.14", "POINT_ID": "P00236", "HOURS": "undefined", "PHONE": "undefined", "SUITE": "A.5.14", "LEVEL_ID": "L005"}},
{"geometry": {"type": "Point", "coordinates": [103.77667751800004, 1.3291283510000651]}, "type": "Feature", "properties": {"CATEGORY": "Laboratory", "WEBSITE": "undefined", "NAME": "A.5.17A", "POINT_ID": "P00237", "HOURS": "undefined", "PHONE": "undefined", "SUITE": "A.5.17A", "LEVEL_ID": "L005"}},
{"geometry": {"type": "Point", "coordinates": [103.77661420500004, 1.3291594720000719]}, "type": "Feature", "properties": {"CATEGORY": "Laboratory", "WEBSITE": "undefined", "NAME": "A.5.17B", "POINT_ID": "P00238", "HOURS": "undefined", "PHONE": "undefined", "SUITE": "A.5.17B", "LEVEL_ID": "L005"}},
{"geometry": {"type": "Point", "coordinates": [103.77655152200003, 1.329188774000045]}, "type": "Feature", "properties": {"CATEGORY": "Laboratory", "WEBSITE": "undefined", "NAME": "A.5.17C", "POINT_ID": "P00239", "HOURS": "undefined", "PHONE": "undefined", "SUITE": "A.5.17C", "LEVEL_ID": "L005"}},
{"geometry": {"type": "Point", "coordinates": [103.77648705700005, 1.32921893200006]}, "type": "Feature", "properties": {"CATEGORY": "Laboratory", "WEBSITE": "undefined", "NAME": "A.5.17D", "POINT_ID": "P00240", "HOURS": "undefined", "PHONE": "undefined", "SUITE": "A.5.17D", "LEVEL_ID": "L005"}},
{"geometry": {"type": "Point", "coordinates": [103.77681487700005, 1.3290513670000339]}, "type": "Feature", "properties": {"CATEGORY": "Laboratory", "WEBSITE": "undefined", "NAME": "A.5.15", "POINT_ID": "P00241", "HOURS": "undefined", "PHONE": "undefined", "SUITE": "A.5.15", "LEVEL_ID": "L005"}},
{"geometry": {"type": "Point", "coordinates": [103.77700972900004, 1.3294755470000721]}, "type": "Feature", "properties": {"CATEGORY": "Laboratory", "WEBSITE": "undefined", "NAME": "A.5.11", "POINT_ID": "P00242", "HOURS": "undefined", "PHONE": "undefined", "SUITE": "A.5.11", "LEVEL_ID": "L005"}},
{"geometry": {"type": "Point", "coordinates": [103.77698364300005, 1.329419864000045]}, "type": "Feature", "properties": {"CATEGORY": "Admin Office", "WEBSITE": "undefined", "NAME": "A.5.12", "POINT_ID": "P00243", "HOURS": "undefined", "PHONE": "undefined", "SUITE": "A.5.12", "LEVEL_ID": "L005"}},
{"geometry": {"type": "Point", "coordinates": [103.77673033000008, 1.3295918570000249]}, "type": "Feature", "properties": {"CATEGORY": "Laboratory", "WEBSITE": "undefined", "NAME": "A.5.09B", "POINT_ID": "P00244", "HOURS": "undefined", "PHONE": "undefined", "SUITE": "A.5.09B", "LEVEL_ID": "L005"}},
{"geometry": {"type": "Point", "coordinates": [103.77655032200005, 1.3297408160000259]}, "type": "Feature", "properties": {"CATEGORY": "Laboratory", "WEBSITE": "undefined", "NAME": "A.5.08A", "POINT_ID": "P00245", "HOURS": "undefined", "PHONE": "undefined", "SUITE": "A.5.08A", "LEVEL_ID": "L005"}},
{"geometry": {"type": "Point", "coordinates": [103.77652383200007, 1.3296815400000239]}, "type": "Feature", "properties": {"CATEGORY": "Laboratory", "WEBSITE": "undefined", "NAME": "A.5.08B", "POINT_ID": "P00246", "HOURS": "undefined", "PHONE": "undefined", "SUITE": "A.5.08B", "LEVEL_ID": "L005"}},
{"geometry": {"type": "Point", "coordinates": [103.77685480200006, 1.3295311210000591]}, "type": "Feature", "properties": {"CATEGORY": "Seminar Room", "WEBSITE": "undefined", "NAME": "A.5.09D", "POINT_ID": "P00247", "HOURS": "undefined", "PHONE": "undefined", "SUITE": "A.5.09D", "LEVEL_ID": "L005"}},
{"geometry": {"type": "Point", "coordinates": [103.77679534600009, 1.329560644000026]}, "type": "Feature", "properties": {"CATEGORY": "Seminar Room", "WEBSITE": "undefined", "NAME": "A.5.09C", "POINT_ID": "P00248", "HOURS": "undefined", "PHONE": "undefined", "SUITE": "A.5.09C", "LEVEL_ID": "L005"}},
{"geometry": {"type": "Point", "coordinates": [103.77666922000009, 1.329622392000033]}, "type": "Feature", "properties": {"CATEGORY": "Laboratory", "WEBSITE": "undefined", "NAME": "A.5.09A", "POINT_ID": "P00249", "HOURS": "undefined", "PHONE": "undefined", "SUITE": "A.5.09A", "LEVEL_ID": "L005"}},
{"geometry": {"type": "Point", "coordinates": [103.77644286200007, 1.3295091960000609]}, "type": "Feature", "properties": {"CATEGORY": "Admin Office", "WEBSITE": "undefined", "NAME": "A.5.19A", "POINT_ID": "P00250", "HOURS": "undefined", "PHONE": "undefined", "SUITE": "A.5.18", "LEVEL_ID": "L005"}},
{"geometry": {"type": "Point", "coordinates": [103.77634948400004, 1.3292999310000371]}, "type": "Feature", "properties": {"CATEGORY": "English Learning Centre", "WEBSITE": "undefined", "NAME": "A.5.20A", "POINT_ID": "P00251", "HOURS": "undefined", "PHONE": "undefined", "SUITE": "A.5.20A", "LEVEL_ID": "L005"}},
{"geometry": {"type": "Point", "coordinates": [103.77632045200005, 1.3292446520000569]}, "type": "Feature", "properties": {"CATEGORY": "English Learning Centre", "WEBSITE": "undefined", "NAME": "A.5.20B", "POINT_ID": "P00252", "HOURS": "undefined", "PHONE": "undefined", "SUITE": "A.5.20B", "LEVEL_ID": "L005"}},
{"geometry": {"type": "Point", "coordinates": [103.77617905700004, 1.3293665710000371]}, "type": "Feature", "properties": {"CATEGORY": "Admin Office HR", "WEBSITE": "undefined", "NAME": "A.5.01A", "POINT_ID": "P00253", "HOURS": "undefined", "PHONE": "undefined", "SUITE": "A.5.01A", "LEVEL_ID": "L005"}},
{"geometry": {"type": "Point", "coordinates": [103.77604917900004, 1.3294296130000589]}, "type": "Feature", "properties": {"CATEGORY": "Admin Office Student Learning Centre", "WEBSITE": "undefined", "NAME": "A.5.01B", "POINT_ID": "P00254", "HOURS": "undefined", "PHONE": "undefined", "SUITE": "A.5.01B", "LEVEL_ID": "L005"}},
{"geometry": {"type": "Point", "coordinates": [103.77604024800007, 1.329479609000032]}, "type": "Feature", "properties": {"CATEGORY": "Meeting Room", "WEBSITE": "undefined", "NAME": "Meeting Room L5", "POINT_ID": "P00255", "HOURS": "undefined", "PHONE": "undefined", "SUITE": "_autoSuite_656", "LEVEL_ID": "L005"}},
{"geometry": {"type": "Point", "coordinates": [103.77590070300005, 1.329533397000034]}, "type": "Feature", "properties": {"CATEGORY": "Admin Office Finance/Corporate Communications", "WEBSITE": null, "NAME": "A.5.02", "POINT_ID": "P00256", "HOURS": null, "PHONE": null, "SUITE": "A.5.02", "LEVEL_ID": "L005"}},
{"geometry": {"type": "Point", "coordinates": [103.77608367200008, 1.32972481500002]}, "type": "Feature", "properties": {"CATEGORY": "Lectures Lounge", "WEBSITE": "undefined", "NAME": "A.5.04", "POINT_ID": "P00257", "HOURS": "undefined", "PHONE": "undefined", "SUITE": "A.5.04", "LEVEL_ID": "L005"}},
{"geometry": {"type": "Point", "coordinates": [103.77605337600005, 1.3296589040000411]}, "type": "Feature", "properties": {"CATEGORY": "Lecturer Room", "WEBSITE": "undefined", "NAME": "A.5.03D-M", "POINT_ID": "P00258", "HOURS": "undefined", "PHONE": "undefined", "SUITE": "A.5.03D-M", "LEVEL_ID": "L005"}},
{"geometry": {"type": "Point", "coordinates": [103.77602391400006, 1.3296010520000441]}, "type": "Feature", "properties": {"CATEGORY": "Admin Group Office", "WEBSITE": "undefined", "NAME": "A.5.03A-B", "POINT_ID": "P00259", "HOURS": "undefined", "PHONE": "undefined", "SUITE": "A.5.03A-B", "LEVEL_ID": "L005"}},
{"geometry": {"type": "Point", "coordinates": [103.77602239500004, 1.3295642760000419]}, "type": "Feature", "properties": {"CATEGORY": "Meeting Room", "WEBSITE": "undefined", "NAME": "Meeting", "POINT_ID": "P00260", "HOURS": "undefined", "PHONE": "undefined", "SUITE": "_autoSuite_655", "LEVEL_ID": "L005"}},
{"geometry": {"type": "Point", "coordinates": [103.77609170100004, 1.329891443000065]}, "type": "Feature", "properties": {"CATEGORY": "Staff Lounge", "WEBSITE": "undefined", "NAME": "A.5.05", "POINT_ID": "P00261", "HOURS": "undefined", "PHONE": "undefined", "SUITE": "A.5.05", "LEVEL_ID": "L005"}},
{"geometry": {"type": "Point", "coordinates": [103.77622299400008, 1.3298224180000491]}, "type": "Feature", "properties": {"CATEGORY": "Admin Office IT & System Operations", "WEBSITE": "undefined", "NAME": "A.5.06/A.5.07", "POINT_ID": "P00262", "HOURS": "undefined", "PHONE": "undefined", "SUITE": "A.5.06/A.5.07", "LEVEL_ID": "L005"}},
{"geometry": {"type": "Point", "coordinates": [103.77636993600004, 1.329758266000056]}, "type": "Feature", "properties": {"CATEGORY": "Admin Office Teaching and Learning", "WEBSITE": "undefined", "NAME": "A.5.06/A.5.07", "POINT_ID": "P00263", "HOURS": "undefined", "PHONE": "undefined", "SUITE": "A.5.06/A.5.07", "LEVEL_ID": "L005"}},
{"geometry": {"type": "Point", "coordinates": [103.77571856100008, 1.329256976000067]}, "type": "Feature", "properties": {"CATEGORY": "Laboratory", "WEBSITE": "undefined", "NAME": "B.5.15", "POINT_ID": "P00267", "HOURS": "undefined", "PHONE": "undefined", "SUITE": "B.5.15", "LEVEL_ID": "L005"}},
{"geometry": {"type": "Point", "coordinates": [103.77541356000006, 1.329366685000025]}, "type": "Feature", "properties": {"CATEGORY": "Lockers", "WEBSITE": "undefined", "NAME": "Lockers", "POINT_ID": "P00270", "HOURS": "undefined", "PHONE": "undefined", "SUITE": "_autoSuite_605", "LEVEL_ID": "L005"}},
{"geometry": {"type": "Point", "coordinates": [103.77632168000008, 1.3297652410000751]}, "type": "Feature", "properties": {"CATEGORY": "Admin Office", "WEBSITE": "undefined", "NAME": "Admin Office", "POINT_ID": "P00274", "HOURS": "undefined", "PHONE": "undefined", "SUITE": "President's Office", "LEVEL_ID": "L006"}},
{"geometry": {"type": "Point", "coordinates": [103.77583628400004, 1.329126064000036]}, "type": "Feature", "properties": {"CATEGORY": "Admin Office", "WEBSITE": "undefined", "NAME": "Admin Office", "POINT_ID": "P00275", "HOURS": "undefined", "PHONE": "undefined", "SUITE": "_autoSuite_682", "LEVEL_ID": "L006"}},
{"geometry": {"type": "Point", "coordinates": [103.77600454700007, 1.3296221650000459]}, "type": "Feature", "properties": {"CATEGORY": "Meeting Room", "WEBSITE": "undefined", "NAME": "Meeting L6", "POINT_ID": "P00276", "HOURS": "undefined", "PHONE": "undefined", "SUITE": "_autoSuite_711", "LEVEL_ID": "L006"}},
{"geometry": {"type": "Point", "coordinates": [103.77604144700007, 1.3295970500000751]}, "type": "Feature", "properties": {"CATEGORY": "Meeting Room", "WEBSITE": "undefined", "NAME": "Meeting L6", "POINT_ID": "P00277", "HOURS": "undefined", "PHONE": "undefined", "SUITE": "_autoSuite_710", "LEVEL_ID": "L006"}},
{"geometry": {"type": "Point", "coordinates": [103.77609063000006, 1.3294706510000649]}, "type": "Feature", "properties": {"CATEGORY": "Meeting Room", "WEBSITE": "undefined", "NAME": "Meeting L6", "POINT_ID": "P00278", "HOURS": "undefined", "PHONE": "undefined", "SUITE": "_autoSuite_715", "LEVEL_ID": "L006"}},
{"geometry": {"type": "Point", "coordinates": [103.77607770600008, 1.329443990000073]}, "type": "Feature", "properties": {"CATEGORY": "Meeting Room", "WEBSITE": "undefined", "NAME": "Meeting L6", "POINT_ID": "P00279", "HOURS": "undefined", "PHONE": "undefined", "SUITE": "_autoSuite_716", "LEVEL_ID": "L006"}},
{"geometry": {"type": "Point", "coordinates": [103.77607024600007, 1.3294122360000531]}, "type": "Feature", "properties": {"CATEGORY": "Admin Office", "WEBSITE": "undefined", "NAME": "Admin Office", "POINT_ID": "P00280", "HOURS": "undefined", "PHONE": "undefined", "SUITE": "_autoSuite_717", "LEVEL_ID": "L006"}},
{"geometry": {"type": "Point", "coordinates": [103.77620833900005, 1.329032311000049]}, "type": "Feature", "properties": {"CATEGORY": "Meeting Room", "WEBSITE": "undefined", "NAME": "B.06A", "POINT_ID": "P00281", "HOURS": "undefined", "PHONE": "undefined", "SUITE": "B.06A", "LEVEL_ID": "L006"}},
{"geometry": {"type": "Point", "coordinates": [103.77625078000005, 1.3290128380000401]}, "type": "Feature", "properties": {"CATEGORY": "Meeting Room", "WEBSITE": null, "NAME": "B.06B", "POINT_ID": "P00282", "HOURS": null, "PHONE": null, "SUITE": "B.06B", "LEVEL_ID": "L006"}},
{"geometry": {"type": "Point", "coordinates": [103.77625386800008, 1.3290835360000419]}, "type": "Feature", "properties": {"CATEGORY": "Boardroom", "WEBSITE": "undefined", "NAME": "Boardroom B", "POINT_ID": "P00283", "HOURS": "undefined", "PHONE": "undefined", "SUITE": "Boardroom B", "LEVEL_ID": "L006"}},
{"geometry": {"type": "Point", "coordinates": [103.77639677000008, 1.3293418650000599]}, "type": "Feature", "properties": {"CATEGORY": "Meeting Room", "WEBSITE": "undefined", "NAME": "Meeting", "POINT_ID": "P00284", "HOURS": "undefined", "PHONE": "undefined", "SUITE": "_autoSuite_752", "LEVEL_ID": "L006"}},
{"geometry": {"type": "Point", "coordinates": [103.77639869800004, 1.329463439000051]}, "type": "Feature", "properties": {"CATEGORY": "Boardroom", "WEBSITE": "undefined", "NAME": "Boardroom", "POINT_ID": "P00285", "HOURS": "undefined", "PHONE": "undefined", "SUITE": "_autoSuite_699", "LEVEL_ID": "L006"}},
{"geometry": {"type": "Point", "coordinates": [103.77590589900007, 1.32923467400002]}, "type": "Feature", "properties": {"CATEGORY": "Staff Lounge", "WEBSITE": "undefined", "NAME": "Staff Lounge", "POINT_ID": "P00287", "HOURS": "undefined", "PHONE": "undefined", "SUITE": "_autoSuite_767", "LEVEL_ID": "L006"}},
{"geometry": {"type": "Point", "coordinates": [103.77531658200007, 1.3288899390000211]}, "type": "Feature", "properties": {"CATEGORY": "Self Service Computer Lab", "WEBSITE": "undefined", "NAME": "C.1.09", "POINT_ID": "P00294", "HOURS": "undefined", "PHONE": "undefined", "SUITE": "C.1.09", "LEVEL_ID": "L009"}},
{"geometry": {"type": "Point", "coordinates": [103.77560909400006, 1.3288498570000229]}, "type": "Feature", "properties": {"CATEGORY": "Photocopy", "WEBSITE": "undefined", "NAME": "C.1.08", "POINT_ID": "P00295", "HOURS": "undefined", "PHONE": "undefined", "SUITE": "C.1.08", "LEVEL_ID": "L009"}},
{"geometry": {"type": "Point", "coordinates": [103.77571326100008, 1.3287999690000449]}, "type": "Feature", "properties": {"CATEGORY": "F&B Outlet", "WEBSITE": "undefined", "NAME": "C.1.07 F&B", "POINT_ID": "P00296", "HOURS": "undefined", "PHONE": "undefined", "SUITE": "C.1.07", "LEVEL_ID": "L009"}},
{"geometry": {"type": "Point", "coordinates": [103.77559965700004, 1.3287357780000659]}, "type": "Feature", "properties": {"CATEGORY": "Financial Training Centre", "WEBSITE": "undefined", "NAME": "C.1.06", "POINT_ID": "P00297", "HOURS": "undefined", "PHONE": "undefined", "SUITE": "C.1.06", "LEVEL_ID": "L009"}},
{"geometry": {"type": "Point", "coordinates": [103.77569310600006, 1.328698408000037]}, "type": "Feature", "properties": {"CATEGORY": "Computer Lab", "WEBSITE": "undefined", "NAME": "C.1.05b", "POINT_ID": "P00298", "HOURS": "undefined", "PHONE": "undefined", "SUITE": "C.1.05", "LEVEL_ID": "L009"}},
{"geometry": {"type": "Point", "coordinates": [103.77606347700004, 1.328558872000031]}, "type": "Feature", "properties": {"CATEGORY": "Office of Student and Alumani Relations", "WEBSITE": "undefined", "NAME": "Office of Student and Alumani Relations", "POINT_ID": "P00299", "HOURS": "undefined", "PHONE": "undefined", "SUITE": "C.1.03/C.1.04", "LEVEL_ID": "L009"}},
{"geometry": {"type": "Point", "coordinates": [103.77630394100004, 1.32845358700007]}, "type": "Feature", "properties": {"CATEGORY": "Office of Admissions", "WEBSITE": "undefined", "NAME": "Office of Admissions", "POINT_ID": "P00300", "HOURS": "undefined", "PHONE": "undefined", "SUITE": "C.1.01/C.1.02", "LEVEL_ID": "L009"}},
{"geometry": {"type": "Point", "coordinates": [103.77577457100006, 1.3281792720000569]}, "type": "Feature", "properties": {"CATEGORY": "Performing Arts Theatre", "WEBSITE": "undefined", "NAME": "Performing Arts Theatre", "POINT_ID": "P00301", "HOURS": "undefined", "PHONE": "undefined", "SUITE": "D.1.01", "LEVEL_ID": "L009"}},
{"geometry": {"type": "Point", "coordinates": [103.77604828500006, 1.3285974340000739]}, "type": "Feature", "properties": {"CATEGORY": "Room", "WEBSITE": null, "NAME": "Interview 5", "POINT_ID": "P00304", "HOURS": null, "PHONE": null, "SUITE": "_autoSuite_794", "LEVEL_ID": "L009"}},
{"geometry": {"type": "Point", "coordinates": [103.77607036700005, 1.328587345000074]}, "type": "Feature", "properties": {"CATEGORY": "Room", "WEBSITE": null, "NAME": "Interview 6", "POINT_ID": "P00305", "HOURS": null, "PHONE": null, "SUITE": "_autoSuite_793", "LEVEL_ID": "L009"}},
{"geometry": {"type": "Point", "coordinates": [103.77610158500005, 1.3285713550000651]}, "type": "Feature", "properties": {"CATEGORY": "Meeting Room", "WEBSITE": null, "NAME": "C.1.A", "POINT_ID": "P00306", "HOURS": null, "PHONE": null, "SUITE": "C.1.A", "LEVEL_ID": "L009"}},
{"geometry": {"type": "Point", "coordinates": [103.77606040800003, 1.3285303080000399]}, "type": "Feature", "properties": {"CATEGORY": "Room", "WEBSITE": null, "NAME": "Interview 4", "POINT_ID": "P00307", "HOURS": null, "PHONE": null, "SUITE": "_autoSuite_796", "LEVEL_ID": "L009"}},
{"geometry": {"type": "Point", "coordinates": [103.77608396400007, 1.3285196000000501]}, "type": "Feature", "properties": {"CATEGORY": "Room", "WEBSITE": null, "NAME": "Interview 3", "POINT_ID": "P00308", "HOURS": null, "PHONE": null, "SUITE": "_autoSuite_795", "LEVEL_ID": "L009"}},
{"geometry": {"type": "Point", "coordinates": [103.77636017200007, 1.328426506000028]}, "type": "Feature", "properties": {"CATEGORY": "Room", "WEBSITE": null, "NAME": "Interview 1", "POINT_ID": "P00311", "HOURS": null, "PHONE": null, "SUITE": "_autoSuite_806", "LEVEL_ID": "L009"}},
{"geometry": {"type": "Point", "coordinates": [103.77633304600005, 1.328441354000063]}, "type": "Feature", "properties": {"CATEGORY": "Room", "WEBSITE": null, "NAME": "Interview 2", "POINT_ID": "P00312", "HOURS": null, "PHONE": null, "SUITE": "_autoSuite_807", "LEVEL_ID": "L009"}},
{"geometry": {"type": "Point", "coordinates": [103.77525611800007, 1.3289211670000329]}, "type": "Feature", "properties": {"CATEGORY": "Room", "WEBSITE": null, "NAME": "Counseling Room", "POINT_ID": "P00314", "HOURS": null, "PHONE": null, "SUITE": "_autoSuite_868", "LEVEL_ID": "L010"}},
{"geometry": {"type": "Point", "coordinates": [103.77527998200009, 1.328909957000064]}, "type": "Feature", "properties": {"CATEGORY": "Room", "WEBSITE": null, "NAME": "Discussion Room", "POINT_ID": "P00315", "HOURS": null, "PHONE": null, "SUITE": "_autoSuite_869", "LEVEL_ID": "L010"}},
{"geometry": {"type": "Point", "coordinates": [103.77525862200008, 1.328866116000029]}, "type": "Feature", "properties": {"CATEGORY": "Room", "WEBSITE": null, "NAME": "Student Wellness Centre", "POINT_ID": "P00316", "HOURS": null, "PHONE": null, "SUITE": "C.2.05", "LEVEL_ID": "L010"}},
{"geometry": {"type": "Point", "coordinates": [103.77534883400006, 1.328821111000025]}, "type": "Feature", "properties": {"CATEGORY": "C.2C", "WEBSITE": null, "NAME": "C.2C", "POINT_ID": "P00318", "HOURS": null, "PHONE": null, "SUITE": "C.2C", "LEVEL_ID": "L010"}},
{"geometry": {"type": "Point", "coordinates": [103.77565445900007, 1.3287637530000329]}, "type": "Feature", "properties": {"CATEGORY": "UniSim Admin Office", "WEBSITE": "undefined", "NAME": "UniSim Admin Office", "POINT_ID": "P00320", "HOURS": "undefined", "PHONE": "undefined", "SUITE": "_autoSuite_862", "LEVEL_ID": "L010"}},
{"geometry": {"type": "Point", "coordinates": [103.77605798600007, 1.328566157000068]}, "type": "Feature", "properties": {"CATEGORY": "Materials Collection Centre", "WEBSITE": "undefined", "NAME": "C.2.02", "POINT_ID": "P00321", "HOURS": "undefined", "PHONE": "undefined", "SUITE": "C.2.02", "LEVEL_ID": "L010"}},
{"geometry": {"type": "Point", "coordinates": [103.77615530900005, 1.3285787950000549]}, "type": "Feature", "properties": {"CATEGORY": "Meeting Room", "WEBSITE": null, "NAME": "Meeting Room", "POINT_ID": "P00322", "HOURS": null, "PHONE": null, "SUITE": "_autoSuite_893", "LEVEL_ID": "L010"}},
{"geometry": {"type": "Point", "coordinates": [103.77631326600005, 1.328445296000041]}, "type": "Feature", "properties": {"CATEGORY": "Office of Academic Services", "WEBSITE": "undefined", "NAME": "Office of Academic Services", "POINT_ID": "P00326", "HOURS": "undefined", "PHONE": "undefined", "SUITE": "C.2.01", "LEVEL_ID": "L010"}},
{"geometry": {"type": "Point", "coordinates": [103.77571576000008, 1.32827824900005]}, "type": "Feature", "properties": {"CATEGORY": "Multi Purpose Sports Hall", "WEBSITE": "undefined", "NAME": "D.2.02", "POINT_ID": "P00332", "HOURS": "undefined", "PHONE": "undefined", "SUITE": "D.2.02", "LEVEL_ID": "L010"}},
{"geometry": {"type": "Point", "coordinates": [103.77584628900007, 1.3280836220000649]}, "type": "Feature", "properties": {"CATEGORY": "Athletes Gym", "WEBSITE": "undefined", "NAME": "D.2.01", "POINT_ID": "P00333", "HOURS": "undefined", "PHONE": "undefined", "SUITE": "D.2.01", "LEVEL_ID": "L010"}},
{"geometry": {"type": "Point", "coordinates": [103.77588196000005, 1.3282919690000199]}, "type": "Feature", "properties": {"CATEGORY": "First Aid/Medical/Defib", "WEBSITE": "undefined", "NAME": "D.2.02", "POINT_ID": "P00334", "HOURS": "undefined", "PHONE": "undefined", "SUITE": "_autoSuite_865", "LEVEL_ID": "L010"}},
{"geometry": {"type": "Point", "coordinates": [103.77600805700007, 1.3286894060000241]}, "type": "Feature", "properties": {"CATEGORY": "Multimedia Electronics", "WEBSITE": "undefined", "NAME": "C.3.06", "POINT_ID": "P00341", "HOURS": "undefined", "PHONE": "undefined", "SUITE": "C.3.06", "LEVEL_ID": "L011"}},
{"geometry": {"type": "Point", "coordinates": [103.77594393200008, 1.328545470000051]}, "type": "Feature", "properties": {"CATEGORY": "Multimedia Lab 1", "WEBSITE": "undefined", "NAME": "C.3.06", "POINT_ID": "P00342", "HOURS": "undefined", "PHONE": "undefined", "SUITE": "C.3.05", "LEVEL_ID": "L011"}},
{"geometry": {"type": "Point", "coordinates": [103.77603829400005, 1.328487795000058]}, "type": "Feature", "properties": {"CATEGORY": "Multimedia Lab 2", "WEBSITE": "undefined", "NAME": "C.3.04", "POINT_ID": "P00343", "HOURS": "undefined", "PHONE": "undefined", "SUITE": "C.3.04", "LEVEL_ID": "L011"}},
{"geometry": {"type": "Point", "coordinates": [103.77634930700003, 1.328517572000067]}, "type": "Feature", "properties": {"CATEGORY": "External Relations Office", "WEBSITE": "undefined", "NAME": "C.3.02", "POINT_ID": "P00344", "HOURS": "undefined", "PHONE": "undefined", "SUITE": "C.3.02", "LEVEL_ID": "L011"}},
{"geometry": {"type": "Point", "coordinates": [103.77627564500006, 1.328375761000075]}, "type": "Feature", "properties": {"CATEGORY": "Biomedical Engineering Lab 2", "WEBSITE": "undefined", "NAME": "C.3.03", "POINT_ID": "P00345", "HOURS": "undefined", "PHONE": "undefined", "SUITE": "C.3.03", "LEVEL_ID": "L011"}},
{"geometry": {"type": "Point", "coordinates": [103.77643020900007, 1.3284815060000601]}, "type": "Feature", "properties": {"CATEGORY": "Technology Development Lab", "WEBSITE": "undefined", "NAME": "C.3.01", "POINT_ID": "P00346", "HOURS": "undefined", "PHONE": "undefined", "SUITE": "C.3.01", "LEVEL_ID": "L011"}},
{"geometry": {"type": "Point", "coordinates": [103.77611454900006, 1.3286455490000439]}, "type": "Feature", "properties": {"CATEGORY": "SAP Lab", "WEBSITE": "undefined", "NAME": "C.3.7", "POINT_ID": "P00349", "HOURS": "undefined", "PHONE": "undefined", "SUITE": "C.3.07", "LEVEL_ID": "L011"}},
{"geometry": {"type": "Point", "coordinates": [103.77601143100009, 1.328682330000049]}, "type": "Feature", "properties": {"CATEGORY": "General Electronics Lab 1", "WEBSITE": "undefined", "NAME": "C.4.06", "POINT_ID": "P00353", "HOURS": "undefined", "PHONE": "undefined", "SUITE": "C.4.06", "LEVEL_ID": "L012"}},
{"geometry": {"type": "Point", "coordinates": [103.77610137500005, 1.3286466380000661]}, "type": "Feature", "properties": {"CATEGORY": "ICT Networking Lab", "WEBSITE": "undefined", "NAME": "C.4.07", "POINT_ID": "P00354", "HOURS": "undefined", "PHONE": "undefined", "SUITE": "C.4.07", "LEVEL_ID": "L012"}},
{"geometry": {"type": "Point", "coordinates": [103.77604236400003, 1.328481027000066]}, "type": "Feature", "properties": {"CATEGORY": "General Purpose ICT Lab", "WEBSITE": "undefined", "NAME": "C.4.04", "POINT_ID": "P00355", "HOURS": "undefined", "PHONE": "undefined", "SUITE": "C.4.04", "LEVEL_ID": "L012"}},
{"geometry": {"type": "Point", "coordinates": [103.77594004800005, 1.32853099600004]}, "type": "Feature", "properties": {"CATEGORY": "General Electronics Lab 2", "WEBSITE": "undefined", "NAME": "C.4.05", "POINT_ID": "P00356", "HOURS": "undefined", "PHONE": "undefined", "SUITE": "C.4.05", "LEVEL_ID": "L012"}},
{"geometry": {"type": "Point", "coordinates": [103.77627571800008, 1.328361676000043]}, "type": "Feature", "properties": {"CATEGORY": "Biomedical Engineering Lab 1", "WEBSITE": "undefined", "NAME": "C.4.03", "POINT_ID": "P00358", "HOURS": "undefined", "PHONE": "undefined", "SUITE": "C.4.03", "LEVEL_ID": "L012"}},
{"geometry": {"type": "Point", "coordinates": [103.77635443800006, 1.328532317000054]}, "type": "Feature", "properties": {"CATEGORY": "HDSS Training Lab", "WEBSITE": "undefined", "NAME": "C.4.02", "POINT_ID": "P00360", "HOURS": "undefined", "PHONE": "undefined", "SUITE": "C.4.02", "LEVEL_ID": "L012"}},
{"geometry": {"type": "Point", "coordinates": [103.77639875000006, 1.328489743000034]}, "type": "Feature", "properties": {"CATEGORY": "Interpretation Lab 1", "WEBSITE": "undefined", "NAME": "C.5.01", "POINT_ID": "P00410", "HOURS": "undefined", "PHONE": "undefined", "SUITE": "C.5.01", "LEVEL_ID": "L013"}},
{"geometry": {"type": "Point", "coordinates": [103.77633004800003, 1.328527853000026]}, "type": "Feature", "properties": {"CATEGORY": "Interpretation Lab 2", "WEBSITE": "undefined", "NAME": "C.5.02", "POINT_ID": "P00411", "HOURS": "undefined", "PHONE": "undefined", "SUITE": "C.5.02", "LEVEL_ID": "L013"}},
{"geometry": {"type": "Point", "coordinates": [103.77611709500007, 1.3286268990000281]}, "type": "Feature", "properties": {"CATEGORY": "UniSim Careers", "WEBSITE": "undefined", "NAME": "C.5.06", "POINT_ID": "P00414", "HOURS": "undefined", "PHONE": "undefined", "SUITE": "C.5.06", "LEVEL_ID": "L013"}},
{"geometry": {"type": "Point", "coordinates": [103.77601445800008, 1.328671252000049]}, "type": "Feature", "properties": {"CATEGORY": "Chinese Studies", "WEBSITE": "undefined", "NAME": "C.5.05", "POINT_ID": "P00415", "HOURS": "undefined", "PHONE": "undefined", "SUITE": "C.5.05", "LEVEL_ID": "L013"}},
{"geometry": {"type": "Point", "coordinates": [103.77600361700007, 1.3285223700000299]}, "type": "Feature", "properties": {"CATEGORY": "Staff Lounge", "WEBSITE": "undefined", "NAME": "C.5.04", "POINT_ID": "P00419", "HOURS": "undefined", "PHONE": "undefined", "SUITE": "C.5.04", "LEVEL_ID": "L013"}},
{"geometry": {"type": "Point", "coordinates": [103.77626154200004, 1.3284244160000751]}, "type": "Feature", "properties": {"CATEGORY": "AV Presentation Lab", "WEBSITE": "undefined", "NAME": "C.5.03", "POINT_ID": "P00420", "HOURS": "undefined", "PHONE": "undefined", "SUITE": "C.5.03", "LEVEL_ID": "L013"}},
{"geometry": {"type": "Point", "coordinates": [103.77620671100004, 1.3283914430000441]}, "type": "Feature", "properties": {"CATEGORY": "Service Lift", "WEBSITE": "undefined", "NAME": "Service Lift", "POINT_ID": "P00421", "HOURS": "undefined", "PHONE": "undefined", "SUITE": "_autoSuite_1342", "LEVEL_ID": "L013"}},
{"geometry": {"type": "Point", "coordinates": [103.77552892300008, 1.3288573180000749]}, "type": "Feature", "properties": {"CATEGORY": "Service Lift", "WEBSITE": "undefined", "NAME": "Service Lift", "POINT_ID": "P00422", "HOURS": "undefined", "PHONE": "undefined", "SUITE": "_autoSuite_1314", "LEVEL_ID": "L013"}},
{"geometry": {"type": "Point", "coordinates": [103.77620647000003, 1.3283903060000739]}, "type": "Feature", "properties": {"CATEGORY": "Service Lift", "WEBSITE": "undefined", "NAME": "Service Lift", "POINT_ID": "P00427", "HOURS": "undefined", "PHONE": "undefined", "SUITE": "_autoSuite_1422", "LEVEL_ID": "L014"}},
{"geometry": {"type": "Point", "coordinates": [103.77627721000005, 1.328360654000051]}, "type": "Feature", "properties": {"CATEGORY": "Boardroom C", "WEBSITE": "undefined", "NAME": "C.6.02", "POINT_ID": "P00429", "HOURS": "undefined", "PHONE": "undefined", "SUITE": "C.6.02", "LEVEL_ID": "L014"}},
{"geometry": {"type": "Point", "coordinates": [103.77603125500008, 1.3285827840000479]}, "type": "Feature", "properties": {"CATEGORY": "UniSim Office", "WEBSITE": "undefined", "NAME": "C.6.03/C.6.04", "POINT_ID": "P00430", "HOURS": "undefined", "PHONE": "undefined", "SUITE": "_autoSuite_1385", "LEVEL_ID": "L014"}},
{"geometry": {"type": "Point", "coordinates": [103.77638056000006, 1.3285035580000231]}, "type": "Feature", "properties": {"CATEGORY": "Estates Office", "WEBSITE": "undefined", "NAME": "C.6.01", "POINT_ID": "P00431", "HOURS": "undefined", "PHONE": "undefined", "SUITE": "_autoSuite_1385", "LEVEL_ID": "L014"}},
{"geometry": {"type": "Point", "coordinates": [103.77632841800005, 1.3285296570000471]}, "type": "Feature", "properties": {"CATEGORY": "Learning Services Training Room", "WEBSITE": null, "NAME": "C.7.03", "POINT_ID": "P00432", "HOURS": null, "PHONE": null, "SUITE": "C.7.03", "LEVEL_ID": "L015"}},
{"geometry": {"type": "Point", "coordinates": [103.77644121000009, 1.328511212000024]}, "type": "Feature", "properties": {"CATEGORY": "Industry Relation Centre", "WEBSITE": null, "NAME": "C.7.01", "POINT_ID": "P00433", "HOURS": null, "PHONE": null, "SUITE": "_autoSuite_1510", "LEVEL_ID": "L015"}},
{"geometry": {"type": "Point", "coordinates": [103.77627106800009, 1.3283553890000239]}, "type": "Feature", "properties": {"CATEGORY": "ETP Studio", "WEBSITE": null, "NAME": "C.7.04", "POINT_ID": "P00434", "HOURS": null, "PHONE": null, "SUITE": "_autoSuite_1520", "LEVEL_ID": "L015"}},
{"geometry": {"type": "Point", "coordinates": [103.77638499700004, 1.3285451860000419]}, "type": "Feature", "properties": {"CATEGORY": "Resource Centre", "WEBSITE": null, "NAME": "C.7.02", "POINT_ID": "P00435", "HOURS": null, "PHONE": null, "SUITE": "C.7.02", "LEVEL_ID": "L015"}},
{"geometry": {"type": "Point", "coordinates": [103.77601652500005, 1.3285845110000309]}, "type": "Feature", "properties": {"CATEGORY": null, "WEBSITE": null, "NAME": "Learning Services", "POINT_ID": "P00436", "HOURS": null, "PHONE": null, "SUITE": "_autoSuite_1467", "LEVEL_ID": "L015"}},
{"geometry": {"type": "Point", "coordinates": [103.77606555100004, 1.328533381000057]}, "type": "Feature", "properties": {"CATEGORY": "Meeting", "WEBSITE": null, "NAME": "C.7B", "POINT_ID": "P00441", "HOURS": null, "PHONE": null, "SUITE": "C.7B", "LEVEL_ID": "L015"}},
{"geometry": {"type": "Point", "coordinates": [103.77601391000007, 1.3286183590000751]}, "type": "Feature", "properties": {"CATEGORY": null, "WEBSITE": null, "NAME": "Copier Room B", "POINT_ID": "P00442", "HOURS": null, "PHONE": null, "SUITE": "_autoSuite_1493", "LEVEL_ID": "L015"}},
{"geometry": {"type": "Point", "coordinates": [103.77607220600004, 1.3285901030000671]}, "type": "Feature", "properties": {"CATEGORY": "Meeting", "WEBSITE": null, "NAME": "C.7A", "POINT_ID": "P00443", "HOURS": null, "PHONE": null, "SUITE": "C.7A", "LEVEL_ID": "L015"}},
{"geometry": {"type": "Point", "coordinates": [103.77595419200009, 1.328585491000069]}, "type": "Feature", "properties": {"CATEGORY": "Meeting", "WEBSITE": null, "NAME": "C.7C", "POINT_ID": "P00444", "HOURS": null, "PHONE": null, "SUITE": "C.7C", "LEVEL_ID": "L015"}},
{"geometry": {"type": "Point", "coordinates": [103.77627121400008, 1.3285147310000409]}, "type": "Feature", "properties": {"CATEGORY": null, "WEBSITE": null, "NAME": "Copier Room A", "POINT_ID": "P00446", "HOURS": null, "PHONE": null, "SUITE": "_autoSuite_1503", "LEVEL_ID": "L015"}},
{"geometry": {"type": "Point", "coordinates": [103.77630228700008, 1.3284812380000519]}, "type": "Feature", "properties": {"CATEGORY": null, "WEBSITE": null, "NAME": "ETP Editing Room", "POINT_ID": "P00447", "HOURS": null, "PHONE": null, "SUITE": "_autoSuite_1516", "LEVEL_ID": "L015"}},
{"geometry": {"type": "Point", "coordinates": [103.77631554700008, 1.328472636000072]}, "type": "Feature", "properties": {"CATEGORY": null, "WEBSITE": null, "NAME": "ETP Editing Room", "POINT_ID": "P00448", "HOURS": null, "PHONE": null, "SUITE": "_autoSuite_1517", "LEVEL_ID": "L015"}},
{"geometry": {"type": "Point", "coordinates": [103.77633012700005, 1.328466961000061]}, "type": "Feature", "properties": {"CATEGORY": null, "WEBSITE": null, "NAME": "ETP Editing Room", "POINT_ID": "P00449", "HOURS": null, "PHONE": null, "SUITE": "_autoSuite_1518", "LEVEL_ID": "L015"}},
{"geometry": {"type": "Point", "coordinates": [103.77634749700007, 1.328458395000041]}, "type": "Feature", "properties": {"CATEGORY": null, "WEBSITE": null, "NAME": "ETP Editing Room", "POINT_ID": "P00450", "HOURS": null, "PHONE": null, "SUITE": "_autoSuite_1519", "LEVEL_ID": "L015"}},
{"geometry": {"type": "Point", "coordinates": [103.77629245000008, 1.328393731000062]}, "type": "Feature", "properties": {"CATEGORY": "Control Room", "WEBSITE": null, "NAME": "C.7.04", "POINT_ID": "P00451", "HOURS": null, "PHONE": null, "SUITE": "C.7.04", "LEVEL_ID": "L015"}},
{"geometry": {"type": "Point", "coordinates": [103.77628129800007, 1.3284258780000759]}, "type": "Feature", "properties": {"CATEGORY": null, "WEBSITE": null, "NAME": "Small Studio 2", "POINT_ID": "P00452", "HOURS": null, "PHONE": null, "SUITE": "_autoSuite_1521", "LEVEL_ID": "L015"}},
{"geometry": {"type": "Point", "coordinates": [103.77632222400007, 1.328406842000049]}, "type": "Feature", "properties": {"CATEGORY": null, "WEBSITE": null, "NAME": "Small Studio 2", "POINT_ID": "P00453", "HOURS": null, "PHONE": null, "SUITE": "_autoSuite_1522", "LEVEL_ID": "L015"}},
{"geometry": {"type": "Point", "coordinates": [103.77637978200005, 1.3285009830000261]}, "type": "Feature", "properties": {"CATEGORY": "University at Buffalo Office", "WEBSITE": null, "NAME": "C.8.01", "POINT_ID": "P00454", "HOURS": null, "PHONE": null, "SUITE": "C.8.01", "LEVEL_ID": "L016"}},
{"geometry": {"type": "Point", "coordinates": [103.77607424100006, 1.3286568660000739]}, "type": "Feature", "properties": {"CATEGORY": "Infocom Technology Services", "WEBSITE": null, "NAME": "C.8.03", "POINT_ID": "P00458", "HOURS": null, "PHONE": null, "SUITE": "_autoSuite_1574", "LEVEL_ID": "L016"}},
{"geometry": {"type": "Point", "coordinates": [103.77600354900005, 1.328498152000066]}, "type": "Feature", "properties": {"CATEGORY": "Facilities", "WEBSITE": null, "NAME": "C.8.02", "POINT_ID": "P00459", "HOURS": null, "PHONE": null, "SUITE": "_autoSuite_1574", "LEVEL_ID": "L016"}},
{"geometry": {"type": "Point", "coordinates": [103.77592842600006, 1.328564700000072]}, "type": "Feature", "properties": {"CATEGORY": null, "WEBSITE": null, "NAME": "Facilities Staff", "POINT_ID": "P00462", "HOURS": null, "PHONE": null, "SUITE": "_autoSuite_1574", "LEVEL_ID": "L016"}},
{"geometry": {"type": "Point", "coordinates": [103.77602551000007, 1.328558377000036]}, "type": "Feature", "properties": {"CATEGORY": null, "WEBSITE": null, "NAME": "Print Mail Room", "POINT_ID": "P00466", "HOURS": null, "PHONE": null, "SUITE": "C.8.02P", "LEVEL_ID": "L016"}},
{"geometry": {"type": "Point", "coordinates": [103.77626107700007, 1.3284275040000471]}, "type": "Feature", "properties": {"CATEGORY": "Meeting", "WEBSITE": null, "NAME": "C.8A", "POINT_ID": "P00475", "HOURS": null, "PHONE": null, "SUITE": "C.8A", "LEVEL_ID": "L016"}},
{"geometry": {"type": "Point", "coordinates": [103.77574520300004, 1.3288341780000219]}, "type": "Feature", "properties": {"CATEGORY": "T3 Lecturer Lounge", "WEBSITE": null, "NAME": "C.8.06", "POINT_ID": "P00476", "HOURS": null, "PHONE": null, "SUITE": "C.8.06", "LEVEL_ID": "L016"}},
{"geometry": {"type": "Point", "coordinates": [103.77564431600007, 1.328856997000059]}, "type": "Feature", "properties": {"CATEGORY": null, "WEBSITE": null, "NAME": "T4 Tutor", "POINT_ID": "P00477", "HOURS": null, "PHONE": null, "SUITE": "_autoSuite_1574", "LEVEL_ID": "L016"}},
{"geometry": {"type": "Point", "coordinates": [103.77572304100005, 1.328772227000059]}, "type": "Feature", "properties": {"CATEGORY": null, "WEBSITE": null, "NAME": "T5 Discussion", "POINT_ID": "P00478", "HOURS": null, "PHONE": null, "SUITE": "_autoSuite_1574", "LEVEL_ID": "L016"}},
{"geometry": {"type": "Point", "coordinates": [103.77576757200006, 1.328774668000051]}, "type": "Feature", "properties": {"CATEGORY": null, "WEBSITE": null, "NAME": "Hot Desk", "POINT_ID": "P00479", "HOURS": null, "PHONE": null, "SUITE": "_autoSuite_1561", "LEVEL_ID": "L016"}},
{"geometry": {"type": "Point", "coordinates": [103.77632647200005, 1.3284452090000509]}, "type": "Feature", "properties": {"CATEGORY": "UniSim College Office", "WEBSITE": null, "NAME": "UniSim College Office", "POINT_ID": "P00483", "HOURS": null, "PHONE": null, "SUITE": "_autoSuite_1625", "LEVEL_ID": "L017"}},
{"geometry": {"type": "Point", "coordinates": [103.77606174900006, 1.3285691180000749]}, "type": "Feature", "properties": {"CATEGORY": "UniSim College Office", "WEBSITE": null, "NAME": "UniSim College Office", "POINT_ID": "P00484", "HOURS": null, "PHONE": null, "SUITE": "_autoSuite_1625", "LEVEL_ID": "L017"}},
{"geometry": {"type": "Point", "coordinates": [103.77601574000005, 1.328615912000032]}, "type": "Feature", "properties": {"CATEGORY": null, "WEBSITE": null, "NAME": "Copier", "POINT_ID": "P00485", "HOURS": null, "PHONE": null, "SUITE": "_autoSuite_1633", "LEVEL_ID": "L017"}},
{"geometry": {"type": "Point", "coordinates": [103.77606893900008, 1.3285904590000539]}, "type": "Feature", "properties": {"CATEGORY": "Meeting", "WEBSITE": null, "NAME": "C.9B", "POINT_ID": "P00486", "HOURS": null, "PHONE": null, "SUITE": "C.9B", "LEVEL_ID": "L017"}},
{"geometry": {"type": "Point", "coordinates": [103.77633647600004, 1.3284631330000709]}, "type": "Feature", "properties": {"CATEGORY": "Meeting", "WEBSITE": null, "NAME": "C.9A", "POINT_ID": "P00488", "HOURS": null, "PHONE": null, "SUITE": "C.9A", "LEVEL_ID": "L017"}},
{"geometry": {"type": "Point", "coordinates": [103.77541149300004, 1.329360713000028]}, "type": "Feature", "properties": {"CATEGORY": null, "WEBSITE": null, "NAME": "Lockers", "POINT_ID": "P00490", "HOURS": null, "PHONE": null, "SUITE": "_autoSuite_377", "LEVEL_ID": "L002"}},
{"geometry": {"type": "Point", "coordinates": [103.77585087600005, 1.3296234470000741]}, "type": "Feature", "properties": {"CATEGORY": "Parking", "WEBSITE": null, "NAME": "Motorcycle Park", "POINT_ID": "P00491", "HOURS": null, "PHONE": null, "SUITE": "_autoSuite_201", "LEVEL_ID": "L001"}},
{"geometry": {"type": "Point", "coordinates": [103.77561349000004, 1.3283413592537829]}, "type": "Feature", "properties": {"CATEGORY": null, "WEBSITE": null, "NAME": "D.1.02", "POINT_ID": "P00500", "HOURS": null, "PHONE": null, "SUITE": "D.1.02", "LEVEL_ID": "L009"}},
{"geometry": {"type": "Point", "coordinates": [103.77555572952767, 1.328431726444423]}, "type": "Feature", "properties": {"CATEGORY": null, "WEBSITE": null, "NAME": "D.1.03", "POINT_ID": "P00501", "HOURS": null, "PHONE": null, "SUITE": "D.1.03", "LEVEL_ID": "L009"}},
{"geometry": {"type": "Point", "coordinates": [103.7756460967183, 1.3284894869167909]}, "type": "Feature", "properties": {"CATEGORY": null, "WEBSITE": null, "NAME": "D.1.04", "POINT_ID": "P00502", "HOURS": null, "PHONE": null, "SUITE": "D.1.04", "LEVEL_ID": "L009"}},
{"geometry": {"type": "Point", "coordinates": [103.77570385719068, 1.3284102991724149]}, "type": "Feature", "properties": {"CATEGORY": null, "WEBSITE": null, "NAME": "D.1.05", "POINT_ID": "P00503", "HOURS": null, "PHONE": null, "SUITE": "D.1.05", "LEVEL_ID": "L009"}},
{"geometry": {"type": "Point", "coordinates": [103.7758911129156, 1.3283935300030181]}, "type": "Feature", "properties": {"CATEGORY": null, "WEBSITE": null, "NAME": "D.1.06", "POINT_ID": "P00504", "HOURS": null, "PHONE": null, "SUITE": "D.1.06", "LEVEL_ID": "L009"}},
{"geometry": {"type": "Point", "coordinates": [103.77583940797663, 1.3283436883050881]}, "type": "Feature", "properties": {"CATEGORY": null, "WEBSITE": null, "NAME": "D.1.07", "POINT_ID": "P00505", "HOURS": null, "PHONE": null, "SUITE": "D.1.07", "LEVEL_ID": "L009"}},
{"geometry": {"type": "Point", "coordinates": [103.77591719829022, 1.3283278507562131]}, "type": "Feature", "properties": {"CATEGORY": null, "WEBSITE": null, "NAME": "D.1.08", "POINT_ID": "P00506", "HOURS": null, "PHONE": null, "SUITE": "D.1.08", "LEVEL_ID": "L009"}},
{"geometry": {"type": "Point", "coordinates": [103.77587387793595, 1.328288722694287]}, "type": "Feature", "properties": {"CATEGORY": null, "WEBSITE": null, "NAME": "D.1.09", "POINT_ID": "P00507", "HOURS": null, "PHONE": null, "SUITE": "_autoSuite_785", "LEVEL_ID": "L009"}},
{"geometry": {"type": "Point", "coordinates": [103.77562140877444, 1.3286930460008619]}, "type": "Feature", "properties": {"CATEGORY": null, "WEBSITE": null, "NAME": "C.2.03", "POINT_ID": "P00508", "HOURS": null, "PHONE": null, "SUITE": "C.2.03", "LEVEL_ID": "L010"}},
{"geometry": {"type": "Point", "coordinates": [103.77565168644141, 1.328830460027866]}, "type": "Feature", "properties": {"CATEGORY": null, "WEBSITE": null, "NAME": "C.2.04", "POINT_ID": "P00509", "HOURS": null, "PHONE": null, "SUITE": "C.2.04", "LEVEL_ID": "L010"}},
{"geometry": {"type": "Point", "coordinates": [103.77525202123746, 1.3288870559745809]}, "type": "Feature", "properties": {"CATEGORY": null, "WEBSITE": null, "NAME": "C.2.05", "POINT_ID": "P00510", "HOURS": null, "PHONE": null, "SUITE": "C.2.05", "LEVEL_ID": "L010"}},
{"geometry": {"type": "Point", "coordinates": [103.77585943781786, 1.3295247502219321]}, "type": "Feature", "properties": {"CATEGORY": "Book Shop", "WEBSITE": null, "NAME": "A.3.02B", "POINT_ID": "P00511", "HOURS": null, "PHONE": null, "SUITE": "A.3.02B", "LEVEL_ID": "L003"}},
{"geometry": {"type": "Point", "coordinates": [103.77567684019552, 1.328662069618503]}, "type": "Feature", "properties": {"CATEGORY": null, "WEBSITE": null, "NAME": "C.3.08", "POINT_ID": "P00512", "HOURS": null, "PHONE": null, "SUITE": "C.3.08", "LEVEL_ID": "L011"}},
{"geometry": {"type": "Point", "coordinates": [103.77557622517914, 1.3287067874035621]}, "type": "Feature", "properties": {"CATEGORY": null, "WEBSITE": null, "NAME": "C.3.09", "POINT_ID": "P00513", "HOURS": null, "PHONE": null, "SUITE": "C.3.09", "LEVEL_ID": "L011"}},
{"geometry": {"type": "Point", "coordinates": [103.77564143861568, 1.328861436410224]}, "type": "Feature", "properties": {"CATEGORY": null, "WEBSITE": null, "NAME": "C.3.10", "POINT_ID": "P00514", "HOURS": null, "PHONE": null, "SUITE": "C.3.10", "LEVEL_ID": "L011"}},
{"geometry": {"type": "Point", "coordinates": [103.77574950659624, 1.328814855384121]}, "type": "Feature", "properties": {"CATEGORY": null, "WEBSITE": null, "NAME": "C.3.11", "POINT_ID": "P00515", "HOURS": null, "PHONE": null, "SUITE": "C.3.11", "LEVEL_ID": "L011"}},
{"geometry": {"type": "Point", "coordinates": [103.77534145680758, 1.3288241715893421]}, "type": "Feature", "properties": {"CATEGORY": null, "WEBSITE": null, "NAME": "C.3.12", "POINT_ID": "P00516", "HOURS": null, "PHONE": null, "SUITE": "C.3.12", "LEVEL_ID": "L011"}},
{"geometry": {"type": "Point", "coordinates": [103.77523897855015, 1.3288670261333559]}, "type": "Feature", "properties": {"CATEGORY": null, "WEBSITE": null, "NAME": "C.3.13", "POINT_ID": "P00517", "HOURS": null, "PHONE": null, "SUITE": "C.3.13", "LEVEL_ID": "L011"}},
{"geometry": {"type": "Point", "coordinates": [103.77530791846878, 1.3290179486579301]}, "type": "Feature", "properties": {"CATEGORY": null, "WEBSITE": null, "NAME": "C.3.15", "POINT_ID": "P00519", "HOURS": null, "PHONE": null, "SUITE": "C.3.15", "LEVEL_ID": "L011"}},
{"geometry": {"type": "Point", "coordinates": [103.77521475641657, 1.329064529684034]}, "type": "Feature", "properties": {"CATEGORY": null, "WEBSITE": null, "NAME": "C.3.14", "POINT_ID": "P00518", "HOURS": null, "PHONE": null, "SUITE": "C.3.14", "LEVEL_ID": "L011"}},
{"geometry": {"type": "Point", "coordinates": [103.77540853348516, 1.3289769573549599]}, "type": "Feature", "properties": {"CATEGORY": null, "WEBSITE": null, "NAME": "C.3.16", "POINT_ID": "P00520", "HOURS": null, "PHONE": null, "SUITE": "C.3.16", "LEVEL_ID": "L011"}},
{"geometry": {"type": "Point", "coordinates": [103.77645008522884, 1.3284813352372229]}, "type": "Feature", "properties": {"CATEGORY": null, "WEBSITE": null, "NAME": "C.4.01", "POINT_ID": "P00521", "HOURS": null, "PHONE": null, "SUITE": "C.4.01", "LEVEL_ID": "L012"}},
{"geometry": {"type": "Point", "coordinates": [103.77567870343658, 1.328662069618503]}, "type": "Feature", "properties": {"CATEGORY": null, "WEBSITE": null, "NAME": "C.4.08", "POINT_ID": "P00522", "HOURS": null, "PHONE": null, "SUITE": "C.4.08", "LEVEL_ID": "L012"}},
{"geometry": {"type": "Point", "coordinates": [103.77558367814332, 1.328708650644606]}, "type": "Feature", "properties": {"CATEGORY": null, "WEBSITE": null, "NAME": "C.4.09", "POINT_ID": "P00523", "HOURS": null, "PHONE": null, "SUITE": "C.4.09", "LEVEL_ID": "L012"}},
{"geometry": {"type": "Point", "coordinates": [103.77564516509779, 1.328853983446048]}, "type": "Feature", "properties": {"CATEGORY": null, "WEBSITE": null, "NAME": "C.4.10", "POINT_ID": "P00524", "HOURS": null, "PHONE": null, "SUITE": "C.4.10", "LEVEL_ID": "L012"}},
{"geometry": {"type": "Point", "coordinates": [103.77574391687313, 1.328807402419945]}, "type": "Feature", "properties": {"CATEGORY": null, "WEBSITE": null, "NAME": "C.4.11", "POINT_ID": "P00525", "HOURS": null, "PHONE": null, "SUITE": "C.4.11", "LEVEL_ID": "L012"}},
{"geometry": {"type": "Point", "coordinates": [103.77524829475539, 1.328865162892312]}, "type": "Feature", "properties": {"CATEGORY": null, "WEBSITE": null, "NAME": "C.4.13", "POINT_ID": "P00527", "HOURS": null, "PHONE": null, "SUITE": "C.4.13", "LEVEL_ID": "L012"}},
{"geometry": {"type": "Point", "coordinates": [103.77533819613575, 1.328821376727775]}, "type": "Feature", "properties": {"CATEGORY": null, "WEBSITE": null, "NAME": "C.4.12", "POINT_ID": "P00526", "HOURS": null, "PHONE": null, "SUITE": "C.4.12", "LEVEL_ID": "L012"}},
{"geometry": {"type": "Point", "coordinates": [103.77521335898578, 1.329063830968642]}, "type": "Feature", "properties": {"CATEGORY": null, "WEBSITE": null, "NAME": "C.4.14", "POINT_ID": "P00528", "HOURS": null, "PHONE": null, "SUITE": "C.4.14", "LEVEL_ID": "L012"}},
{"geometry": {"type": "Point", "coordinates": [103.77530931589955, 1.3290181815630611]}, "type": "Feature", "properties": {"CATEGORY": null, "WEBSITE": null, "NAME": "C.4.15", "POINT_ID": "P00529", "HOURS": null, "PHONE": null, "SUITE": "C.4.15", "LEVEL_ID": "L012"}},
{"geometry": {"type": "Point", "coordinates": [103.77540806767489, 1.3289762586395679]}, "type": "Feature", "properties": {"CATEGORY": null, "WEBSITE": null, "NAME": "C.4.16", "POINT_ID": "P00530", "HOURS": null, "PHONE": null, "SUITE": "C.4.16", "LEVEL_ID": "L012"}},
{"geometry": {"type": "Point", "coordinates": [103.77567730600576, 1.3286641657646781]}, "type": "Feature", "properties": {"CATEGORY": null, "WEBSITE": null, "NAME": "C.5.07", "POINT_ID": "P00531", "HOURS": null, "PHONE": null, "SUITE": "C.5.07", "LEVEL_ID": "L013"}},
{"geometry": {"type": "Point", "coordinates": [103.77558041747147, 1.3287088835497369]}, "type": "Feature", "properties": {"CATEGORY": null, "WEBSITE": null, "NAME": "C.5.08", "POINT_ID": "P00532", "HOURS": null, "PHONE": null, "SUITE": "C.5.08", "LEVEL_ID": "L013"}},
{"geometry": {"type": "Point", "coordinates": [103.77564842576957, 1.3288486266280459]}, "type": "Feature", "properties": {"CATEGORY": null, "WEBSITE": null, "NAME": "C.5.08", "POINT_ID": "P00533", "HOURS": null, "PHONE": null, "SUITE": "C.5.09", "LEVEL_ID": "L013"}},
{"geometry": {"type": "Point", "coordinates": [103.77574345106284, 1.328803908842987]}, "type": "Feature", "properties": {"CATEGORY": null, "WEBSITE": null, "NAME": "C.5.10", "POINT_ID": "P00534", "HOURS": null, "PHONE": null, "SUITE": "C.5.10", "LEVEL_ID": "L013"}},
{"geometry": {"type": "Point", "coordinates": [103.77534192261783, 1.328825336114994]}, "type": "Feature", "properties": {"CATEGORY": null, "WEBSITE": null, "NAME": "C.5.11", "POINT_ID": "P00535", "HOURS": null, "PHONE": null, "SUITE": "C.5.11", "LEVEL_ID": "L013"}},
{"geometry": {"type": "Point", "coordinates": [103.77524596570404, 1.3288737803821411]}, "type": "Feature", "properties": {"CATEGORY": null, "WEBSITE": null, "NAME": "C.5.12", "POINT_ID": "P00536", "HOURS": null, "PHONE": null, "SUITE": "C.5.12", "LEVEL_ID": "L013"}},
{"geometry": {"type": "Point", "coordinates": [103.77521149574473, 1.3290647625891641]}, "type": "Feature", "properties": {"CATEGORY": null, "WEBSITE": null, "NAME": "C.5.13", "POINT_ID": "P00537", "HOURS": null, "PHONE": null, "SUITE": "C.5.13", "LEVEL_ID": "L013"}},
{"geometry": {"type": "Point", "coordinates": [103.77530838427903, 1.329014455080973]}, "type": "Feature", "properties": {"CATEGORY": null, "WEBSITE": null, "NAME": "C.5.14", "POINT_ID": "P00538", "HOURS": null, "PHONE": null, "SUITE": "C.5.14", "LEVEL_ID": "L013"}},
{"geometry": {"type": "Point", "coordinates": [103.7754043411928, 1.32896787405487]}, "type": "Feature", "properties": {"CATEGORY": null, "WEBSITE": null, "NAME": "C.5.15", "POINT_ID": "P00539", "HOURS": null, "PHONE": null, "SUITE": "C.5.15", "LEVEL_ID": "L013"}},
{"geometry": {"type": "Point", "coordinates": [103.77567916924681, 1.3286650973851999]}, "type": "Feature", "properties": {"CATEGORY": null, "WEBSITE": null, "NAME": "C.6.05", "POINT_ID": "P00540", "HOURS": null, "PHONE": null, "SUITE": "C.6.05", "LEVEL_ID": "L014"}},
{"geometry": {"type": "Point", "coordinates": [103.77557855423044, 1.3287079519292151]}, "type": "Feature", "properties": {"CATEGORY": null, "WEBSITE": null, "NAME": "C.6.06", "POINT_ID": "P00541", "HOURS": null, "PHONE": null, "SUITE": "C.6.06", "LEVEL_ID": "L014"}},
{"geometry": {"type": "Point", "coordinates": [103.77564563090802, 1.328853284730656]}, "type": "Feature", "properties": {"CATEGORY": null, "WEBSITE": null, "NAME": "C.6.07", "POINT_ID": "P00542", "HOURS": null, "PHONE": null, "SUITE": "C.6.07", "LEVEL_ID": "L014"}},
{"geometry": {"type": "Point", "coordinates": [103.77574065620128, 1.3288048404635091]}, "type": "Feature", "properties": {"CATEGORY": null, "WEBSITE": null, "NAME": "C.6.08", "POINT_ID": "P00543", "HOURS": null, "PHONE": null, "SUITE": "C.6.08", "LEVEL_ID": "L014"}},
{"geometry": {"type": "Point", "coordinates": [103.77533819613575, 1.328821609632906]}, "type": "Feature", "properties": {"CATEGORY": null, "WEBSITE": null, "NAME": "C.6.09", "POINT_ID": "P00544", "HOURS": null, "PHONE": null, "SUITE": "C.6.09", "LEVEL_ID": "L014"}},
{"geometry": {"type": "Point", "coordinates": [103.77524317084249, 1.328868190659009]}, "type": "Feature", "properties": {"CATEGORY": null, "WEBSITE": null, "NAME": "C.6.10", "POINT_ID": "P00545", "HOURS": null, "PHONE": null, "SUITE": "C.6.10", "LEVEL_ID": "L014"}},
{"geometry": {"type": "Point", "coordinates": [103.7752096325037, 1.3290619677275981]}, "type": "Feature", "properties": {"CATEGORY": null, "WEBSITE": null, "NAME": "C.6.11", "POINT_ID": "P00546", "HOURS": null, "PHONE": null, "SUITE": "C.6.11", "LEVEL_ID": "L014"}},
{"geometry": {"type": "Point", "coordinates": [103.77530652103799, 1.329013523460451]}, "type": "Feature", "properties": {"CATEGORY": null, "WEBSITE": null, "NAME": "C.6.12", "POINT_ID": "P00547", "HOURS": null, "PHONE": null, "SUITE": "C.6.12", "LEVEL_ID": "L014"}},
{"geometry": {"type": "Point", "coordinates": [103.77540340957229, 1.3289688056753921]}, "type": "Feature", "properties": {"CATEGORY": null, "WEBSITE": null, "NAME": "C.6.13", "POINT_ID": "P00548", "HOURS": null, "PHONE": null, "SUITE": "C.6.13", "LEVEL_ID": "L014"}},
{"geometry": {"type": "Point", "coordinates": [103.77599592022432, 1.3285197645837581]}, "type": "Feature", "properties": {"CATEGORY": null, "WEBSITE": null, "NAME": "C.7.05", "POINT_ID": "P00549", "HOURS": null, "PHONE": null, "SUITE": "_autoSuite_1467", "LEVEL_ID": "L015"}},
{"geometry": {"type": "Point", "coordinates": [103.77605181745564, 1.3286446017337139]}, "type": "Feature", "properties": {"CATEGORY": null, "WEBSITE": null, "NAME": "C.7.06", "POINT_ID": "P00550", "HOURS": null, "PHONE": null, "SUITE": "_autoSuite_1467", "LEVEL_ID": "L015"}},
{"geometry": {"type": "Point", "coordinates": [103.77567730600578, 1.328661370903111]}, "type": "Feature", "properties": {"CATEGORY": null, "WEBSITE": null, "NAME": "C.7.07", "POINT_ID": "P00551", "HOURS": null, "PHONE": null, "SUITE": "C.7.07", "LEVEL_ID": "L015"}},
{"geometry": {"type": "Point", "coordinates": [103.77558041747149, 1.328709815170259]}, "type": "Feature", "properties": {"CATEGORY": null, "WEBSITE": null, "NAME": "C.7.08", "POINT_ID": "P00552", "HOURS": null, "PHONE": null, "SUITE": "C.7.08", "LEVEL_ID": "L015"}},
{"geometry": {"type": "Point", "coordinates": [103.77564376766698, 1.3288551479716999]}, "type": "Feature", "properties": {"CATEGORY": null, "WEBSITE": null, "NAME": "C.7.09", "POINT_ID": "P00553", "HOURS": null, "PHONE": null, "SUITE": "C.7.09", "LEVEL_ID": "L015"}},
{"geometry": {"type": "Point", "coordinates": [103.77574065620128, 1.328806703704553]}, "type": "Feature", "properties": {"CATEGORY": null, "WEBSITE": null, "NAME": "C.7.10", "POINT_ID": "P00554", "HOURS": null, "PHONE": null, "SUITE": "C.7.10", "LEVEL_ID": "L015"}},
{"geometry": {"type": "Point", "coordinates": [103.7753400593768, 1.3288276651663]}, "type": "Feature", "properties": {"CATEGORY": null, "WEBSITE": null, "NAME": "C.7.11", "POINT_ID": "P00555", "HOURS": null, "PHONE": null, "SUITE": "C.7.11", "LEVEL_ID": "L015"}},
{"geometry": {"type": "Point", "coordinates": [103.7752431708425, 1.328874246192403]}, "type": "Feature", "properties": {"CATEGORY": null, "WEBSITE": null, "NAME": "C.7.12", "POINT_ID": "P00556", "HOURS": null, "PHONE": null, "SUITE": "C.7.12", "LEVEL_ID": "L015"}},
{"geometry": {"type": "Point", "coordinates": [103.77520963250372, 1.329064296778903]}, "type": "Feature", "properties": {"CATEGORY": null, "WEBSITE": null, "NAME": "C.7.13", "POINT_ID": "P00557", "HOURS": null, "PHONE": null, "SUITE": "C.7.13", "LEVEL_ID": "L015"}},
{"geometry": {"type": "Point", "coordinates": [103.77530838427904, 1.329013989270712]}, "type": "Feature", "properties": {"CATEGORY": null, "WEBSITE": null, "NAME": "C.7.14", "POINT_ID": "P00558", "HOURS": null, "PHONE": null, "SUITE": "C.7.14", "LEVEL_ID": "L015"}},
{"geometry": {"type": "Point", "coordinates": [103.77540340957231, 1.3289692714856529]}, "type": "Feature", "properties": {"CATEGORY": null, "WEBSITE": null, "NAME": "C.7.15", "POINT_ID": "P00559", "HOURS": null, "PHONE": null, "SUITE": "C.7.15", "LEVEL_ID": "L015"}},
{"geometry": {"type": "Point", "coordinates": [103.77567730600576, 1.328662768333895]}, "type": "Feature", "properties": {"CATEGORY": null, "WEBSITE": null, "NAME": "C.8.04", "POINT_ID": "P00560", "HOURS": null, "PHONE": null, "SUITE": "C.8.04", "LEVEL_ID": "L016"}},
{"geometry": {"type": "Point", "coordinates": [103.77558228071251, 1.3287084177394759]}, "type": "Feature", "properties": {"CATEGORY": null, "WEBSITE": null, "NAME": "C.8.05", "POINT_ID": "P00561", "HOURS": null, "PHONE": null, "SUITE": "C.8.05", "LEVEL_ID": "L016"}},
{"geometry": {"type": "Point", "coordinates": [103.77574997240649, 1.3288323232689101]}, "type": "Feature", "properties": {"CATEGORY": null, "WEBSITE": null, "NAME": "C.8.06", "POINT_ID": "P00562", "HOURS": null, "PHONE": null, "SUITE": "C.8.06", "LEVEL_ID": "L016"}},
{"geometry": {"type": "Point", "coordinates": [103.77533819613573, 1.328822075443167]}, "type": "Feature", "properties": {"CATEGORY": null, "WEBSITE": null, "NAME": "C.8.07", "POINT_ID": "P00563", "HOURS": null, "PHONE": null, "SUITE": "C.8.07", "LEVEL_ID": "L016"}},
{"geometry": {"type": "Point", "coordinates": [103.77524410246301, 1.328870519710315]}, "type": "Feature", "properties": {"CATEGORY": null, "WEBSITE": null, "NAME": "C.8.08", "POINT_ID": "P00564", "HOURS": null, "PHONE": null, "SUITE": "C.8.08", "LEVEL_ID": "L016"}},
{"geometry": {"type": "Point", "coordinates": [103.77521149574474, 1.329065228399426]}, "type": "Feature", "properties": {"CATEGORY": null, "WEBSITE": null, "NAME": "C.8.09", "POINT_ID": "P00565", "HOURS": null, "PHONE": null, "SUITE": "C.8.09", "LEVEL_ID": "L016"}},
{"geometry": {"type": "Point", "coordinates": [103.77530838427903, 1.329013989270712]}, "type": "Feature", "properties": {"CATEGORY": null, "WEBSITE": null, "NAME": "C.8.10", "POINT_ID": "P00566", "HOURS": null, "PHONE": null, "SUITE": "C.8.10", "LEVEL_ID": "L016"}},
{"geometry": {"type": "Point", "coordinates": [103.77540247795176, 1.328970203106175]}, "type": "Feature", "properties": {"CATEGORY": null, "WEBSITE": null, "NAME": "C.8.11", "POINT_ID": "P00567", "HOURS": null, "PHONE": null, "SUITE": "C.8.11", "LEVEL_ID": "L016"}},
{"geometry": {"type": "Point", "coordinates": [103.77630428661712, 1.3285137090503649]}, "type": "Feature", "properties": {"CATEGORY": null, "WEBSITE": null, "NAME": "C.9.01", "POINT_ID": "P00568", "HOURS": null, "PHONE": null, "SUITE": "_autoSuite_1625", "LEVEL_ID": "L017"}},
{"geometry": {"type": "Point", "coordinates": [103.77628565420667, 1.3283767608336221]}, "type": "Feature", "properties": {"CATEGORY": null, "WEBSITE": null, "NAME": "C.9.02", "POINT_ID": "P00569", "HOURS": null, "PHONE": null, "SUITE": "_autoSuite_1625", "LEVEL_ID": "L017"}},
{"geometry": {"type": "Point", "coordinates": [103.77598939888065, 1.328507420611841]}, "type": "Feature", "properties": {"CATEGORY": null, "WEBSITE": null, "NAME": "C.9.03", "POINT_ID": "P00570", "HOURS": null, "PHONE": null, "SUITE": "_autoSuite_1625", "LEVEL_ID": "L017"}},
{"geometry": {"type": "Point", "coordinates": [103.77605274907614, 1.3286415739670181]}, "type": "Feature", "properties": {"CATEGORY": null, "WEBSITE": null, "NAME": "C.9.04", "POINT_ID": "P00571", "HOURS": null, "PHONE": null, "SUITE": "_autoSuite_1625", "LEVEL_ID": "L017"}},
{"geometry": {"type": "Point", "coordinates": [103.77624652614473, 1.3287943597326359]}, "type": "Feature", "properties": {"CATEGORY": null, "WEBSITE": null, "NAME": "MPH B1", "POINT_ID": "P00572", "HOURS": null, "PHONE": null, "SUITE": "_autoSuite_1260", "LEVEL_ID": "L008"}},
{"geometry": {"type": "Point", "coordinates": [103.77628658582718, 1.328885658543798]}, "type": "Feature", "properties": {"CATEGORY": null, "WEBSITE": null, "NAME": "MPH B2", "POINT_ID": "P00573", "HOURS": null, "PHONE": null, "SUITE": "_autoSuite_1260", "LEVEL_ID": "L008"}},
{"geometry": {"type": "Point", "coordinates": [103.77589640804069, 1.328513746137203]}, "type": "Feature", "properties": {"CATEGORY": null, "WEBSITE": null, "NAME": "C.8.02H", "POINT_ID": "P00580", "HOURS": null, "PHONE": null, "SUITE": "C.8.02H", "LEVEL_ID": "L016"}},
{"geometry": {"type": "Point", "coordinates": [103.77592002476943, 1.3285061654588419]}, "type": "Feature", "properties": {"CATEGORY": null, "WEBSITE": null, "NAME": "C.8.02G", "POINT_ID": "P00581", "HOURS": null, "PHONE": null, "SUITE": "C.8.02G", "LEVEL_ID": "L016"}},
{"geometry": {"type": "Point", "coordinates": [103.77594189211085, 1.3284953775704049]}, "type": "Feature", "properties": {"CATEGORY": null, "WEBSITE": null, "NAME": "C.8.02F", "POINT_ID": "P00582", "HOURS": null, "PHONE": null, "SUITE": "C.8.02F", "LEVEL_ID": "L016"}},
{"geometry": {"type": "Point", "coordinates": [103.7759653235056, 1.3284845468170099]}, "type": "Feature", "properties": {"CATEGORY": null, "WEBSITE": null, "NAME": "C.8.02E", "POINT_ID": "P00583", "HOURS": null, "PHONE": null, "SUITE": "C.8.02E", "LEVEL_ID": "L016"}},
{"geometry": {"type": "Point", "coordinates": [103.77599156431532, 1.328472446888088]}, "type": "Feature", "properties": {"CATEGORY": null, "WEBSITE": null, "NAME": "C.8.02D", "POINT_ID": "P00584", "HOURS": null, "PHONE": null, "SUITE": "C.8.02D", "LEVEL_ID": "L016"}},
{"geometry": {"type": "Point", "coordinates": [103.77601547260861, 1.3284607843059939]}, "type": "Feature", "properties": {"CATEGORY": null, "WEBSITE": null, "NAME": "C.8.02C", "POINT_ID": "P00585", "HOURS": null, "PHONE": null, "SUITE": "C.8.02C", "LEVEL_ID": "L016"}},
{"geometry": {"type": "Point", "coordinates": [103.77603646525637, 1.3284516000225961]}, "type": "Feature", "properties": {"CATEGORY": null, "WEBSITE": null, "NAME": "C.8.02B", "POINT_ID": "P00586", "HOURS": null, "PHONE": null, "SUITE": "C.8.02B", "LEVEL_ID": "L016"}},
{"geometry": {"type": "Point", "coordinates": [103.77606183137243, 1.328440520569607]}, "type": "Feature", "properties": {"CATEGORY": null, "WEBSITE": null, "NAME": "C.8.02A", "POINT_ID": "P00587", "HOURS": null, "PHONE": null, "SUITE": "C.8.02A", "LEVEL_ID": "L016"}},
{"geometry": {"type": "Point", "coordinates": [103.77596328255372, 1.3285426410540631]}, "type": "Feature", "properties": {"CATEGORY": null, "WEBSITE": null, "NAME": "C.8.02I", "POINT_ID": "P00588", "HOURS": null, "PHONE": null, "SUITE": "C.8.02I", "LEVEL_ID": "L016"}},
{"geometry": {"type": "Point", "coordinates": [103.77598682639132, 1.3285317073833509]}, "type": "Feature", "properties": {"CATEGORY": null, "WEBSITE": null, "NAME": "C.8.02J", "POINT_ID": "P00589", "HOURS": null, "PHONE": null, "SUITE": "C.8.02J", "LEVEL_ID": "L016"}},
{"geometry": {"type": "Point", "coordinates": [103.77601160937827, 1.3285201176923951]}, "type": "Feature", "properties": {"CATEGORY": null, "WEBSITE": null, "NAME": "C.8.02K", "POINT_ID": "P00590", "HOURS": null, "PHONE": null, "SUITE": "C.8.02K", "LEVEL_ID": "L016"}},
{"geometry": {"type": "Point", "coordinates": [103.77603537188929, 1.328508291105241]}, "type": "Feature", "properties": {"CATEGORY": null, "WEBSITE": null, "NAME": "C.8.02L", "POINT_ID": "P00591", "HOURS": null, "PHONE": null, "SUITE": "C.8.02L", "LEVEL_ID": "L016"}},
{"geometry": {"type": "Point", "coordinates": [103.7760579681421, 1.3284979952319871]}, "type": "Feature", "properties": {"CATEGORY": null, "WEBSITE": null, "NAME": "C.8.02M", "POINT_ID": "P00592", "HOURS": null, "PHONE": null, "SUITE": "C.8.02M", "LEVEL_ID": "L016"}},
{"geometry": {"type": "Point", "coordinates": [103.7760725463697, 1.3285303224517271]}, "type": "Feature", "properties": {"CATEGORY": null, "WEBSITE": null, "NAME": "C.8.02N", "POINT_ID": "P00593", "HOURS": null, "PHONE": null, "SUITE": "C.8.02N", "LEVEL_ID": "L016"}},
{"geometry": {"type": "Point", "coordinates": [103.77605016879032, 1.328541037449025]}, "type": "Feature", "properties": {"CATEGORY": null, "WEBSITE": null, "NAME": "C.8.02O", "POINT_ID": "P00594", "HOURS": null, "PHONE": null, "SUITE": "C.8.02O", "LEVEL_ID": "L016"}},
{"geometry": {"type": "Point", "coordinates": [103.77602698940841, 1.328552189793152]}, "type": "Feature", "properties": {"CATEGORY": null, "WEBSITE": null, "NAME": "C.8.02P", "POINT_ID": "P00595", "HOURS": null, "PHONE": null, "SUITE": "C.8.02P", "LEVEL_ID": "L016"}},
{"geometry": {"type": "Point", "coordinates": [103.77600104016325, 1.3285647452916871]}, "type": "Feature", "properties": {"CATEGORY": null, "WEBSITE": null, "NAME": "C.8.02Q", "POINT_ID": "P00596", "HOURS": null, "PHONE": null, "SUITE": "C.8.02Q", "LEVEL_ID": "L016"}},
{"geometry": {"type": "Point", "coordinates": [103.77597771499906, 1.328573710901672]}, "type": "Feature", "properties": {"CATEGORY": null, "WEBSITE": null, "NAME": "C.8.02R", "POINT_ID": "P00597", "HOURS": null, "PHONE": null, "SUITE": "C.8.02R", "LEVEL_ID": "L016"}},
{"geometry": {"type": "Point", "coordinates": [103.77598675350021, 1.3287246684486449]}, "type": "Feature", "properties": {"CATEGORY": null, "WEBSITE": null, "NAME": "C.8.03A", "POINT_ID": "P00598", "HOURS": null, "PHONE": null, "SUITE": "C.8.03A", "LEVEL_ID": "L016"}},
{"geometry": {"type": "Point", "coordinates": [103.77601357743902, 1.328716140185489]}, "type": "Feature", "properties": {"CATEGORY": null, "WEBSITE": null, "NAME": "C.8.03B", "POINT_ID": "P00599", "HOURS": null, "PHONE": null, "SUITE": "C.8.03B", "LEVEL_ID": "L016"}},
{"geometry": {"type": "Point", "coordinates": [103.77603551767159, 1.3287052065147771]}, "type": "Feature", "properties": {"CATEGORY": null, "WEBSITE": null, "NAME": "C.8.03C", "POINT_ID": "P00600", "HOURS": null, "PHONE": null, "SUITE": "C.8.03C", "LEVEL_ID": "L016"}},
{"geometry": {"type": "Point", "coordinates": [103.77605825970666, 1.3286924870111809]}, "type": "Feature", "properties": {"CATEGORY": null, "WEBSITE": null, "NAME": "C.8.03D", "POINT_ID": "P00601", "HOURS": null, "PHONE": null, "SUITE": "C.8.03D", "LEVEL_ID": "L016"}},
{"geometry": {"type": "Point", "coordinates": [103.77608486497206, 1.3286815533404679]}, "type": "Feature", "properties": {"CATEGORY": null, "WEBSITE": null, "NAME": "C.8.03E", "POINT_ID": "P00602", "HOURS": null, "PHONE": null, "SUITE": "C.8.03E", "LEVEL_ID": "L016"}},
{"geometry": {"type": "Point", "coordinates": [103.77610819013626, 1.328670692560894]}, "type": "Feature", "properties": {"CATEGORY": null, "WEBSITE": null, "NAME": "C.8.03F", "POINT_ID": "P00603", "HOURS": null, "PHONE": null, "SUITE": "C.8.03F", "LEVEL_ID": "L016"}},
{"geometry": {"type": "Point", "coordinates": [103.77612787074354, 1.3286586655231101]}, "type": "Feature", "properties": {"CATEGORY": null, "WEBSITE": null, "NAME": "C.8.03G", "POINT_ID": "P00604", "HOURS": null, "PHONE": null, "SUITE": "C.8.03G", "LEVEL_ID": "L016"}},
{"geometry": {"type": "Point", "coordinates": [103.77615221638364, 1.32864895277896]}, "type": "Feature", "properties": {"CATEGORY": null, "WEBSITE": null, "NAME": "C.8.03H", "POINT_ID": "P00605", "HOURS": null, "PHONE": null, "SUITE": "C.8.03H", "LEVEL_ID": "L016"}},
{"geometry": {"type": "Point", "coordinates": [103.77610950217674, 1.32861319967573]}, "type": "Feature", "properties": {"CATEGORY": null, "WEBSITE": null, "NAME": "C.8.03I", "POINT_ID": "P00606", "HOURS": null, "PHONE": null, "SUITE": "C.8.03I", "LEVEL_ID": "L016"}},
{"geometry": {"type": "Point", "coordinates": [103.77608668725051, 1.3286239875641661]}, "type": "Feature", "properties": {"CATEGORY": null, "WEBSITE": null, "NAME": "C.8.03J", "POINT_ID": "P00607", "HOURS": null, "PHONE": null, "SUITE": "C.8.03J", "LEVEL_ID": "L016"}},
{"geometry": {"type": "Point", "coordinates": [103.77606394521543, 1.328635139908293]}, "type": "Feature", "properties": {"CATEGORY": null, "WEBSITE": null, "NAME": "C.8.03K", "POINT_ID": "P00608", "HOURS": null, "PHONE": null, "SUITE": "C.8.03K", "LEVEL_ID": "L016"}},
{"geometry": {"type": "Point", "coordinates": [103.77603887066394, 1.3286472580599999]}, "type": "Feature", "properties": {"CATEGORY": null, "WEBSITE": null, "NAME": "C.8.03L", "POINT_ID": "P00609", "HOURS": null, "PHONE": null, "SUITE": "C.8.03L", "LEVEL_ID": "L016"}},
{"geometry": {"type": "Point", "coordinates": [103.77601459791495, 1.3286566610168129]}, "type": "Feature", "properties": {"CATEGORY": null, "WEBSITE": null, "NAME": "C.8.03M", "POINT_ID": "P00610", "HOURS": null, "PHONE": null, "SUITE": "C.8.03M", "LEVEL_ID": "L016"}},
{"geometry": {"type": "Point", "coordinates": [103.77599265768239, 1.3286684147128289]}, "type": "Feature", "properties": {"CATEGORY": null, "WEBSITE": null, "NAME": "C.8.03N", "POINT_ID": "P00611", "HOURS": null, "PHONE": null, "SUITE": "C.8.03N", "LEVEL_ID": "L016"}},
{"geometry": {"type": "Point", "coordinates": [103.77597756921681, 1.3286358141513199]}, "type": "Feature", "properties": {"CATEGORY": null, "WEBSITE": null, "NAME": "C.8.03O", "POINT_ID": "P00612", "HOURS": null, "PHONE": null, "SUITE": "C.8.03O", "LEVEL_ID": "L016"}},
{"geometry": {"type": "Point", "coordinates": [103.77599987390506, 1.328625099154022]}, "type": "Feature", "properties": {"CATEGORY": null, "WEBSITE": null, "NAME": "C.8.03P", "POINT_ID": "P00613", "HOURS": null, "PHONE": null, "SUITE": "C.8.03P", "LEVEL_ID": "L016"}},
{"geometry": {"type": "Point", "coordinates": [103.77602261594014, 1.3286137828048341]}, "type": "Feature", "properties": {"CATEGORY": null, "WEBSITE": null, "NAME": "C.8.03Q", "POINT_ID": "P00614", "HOURS": null, "PHONE": null, "SUITE": "C.8.03Q", "LEVEL_ID": "L016"}},
{"geometry": {"type": "Point", "coordinates": [103.77604827362075, 1.328602266005017]}, "type": "Feature", "properties": {"CATEGORY": null, "WEBSITE": null, "NAME": "C.8.03R", "POINT_ID": "P00615", "HOURS": null, "PHONE": null, "SUITE": "C.8.03R", "LEVEL_ID": "L016"}},
{"geometry": {"type": "Point", "coordinates": [103.77607243703302, 1.3285930634988341]}, "type": "Feature", "properties": {"CATEGORY": null, "WEBSITE": null, "NAME": "C.8.03S", "POINT_ID": "P00616", "HOURS": null, "PHONE": null, "SUITE": "C.8.03S", "LEVEL_ID": "L016"}},
{"geometry": {"type": "Point", "coordinates": [103.77609445015672, 1.3285794875243659]}, "type": "Feature", "properties": {"CATEGORY": null, "WEBSITE": null, "NAME": "C.8.03T", "POINT_ID": "P00617", "HOURS": null, "PHONE": null, "SUITE": "C.8.03T", "LEVEL_ID": "L016"}},
{"geometry": {"type": "Point", "coordinates": [103.77634038646144, 1.328461648490489]}, "type": "Feature", "properties": {"CATEGORY": null, "WEBSITE": null, "NAME": "C.6A", "POINT_ID": "P00620", "HOURS": null, "PHONE": null, "SUITE": "C.6A", "LEVEL_ID": "L014"}},
{"geometry": {"type": "Point", "coordinates": [103.77607098081509, 1.3285891350909991]}, "type": "Feature", "properties": {"CATEGORY": null, "WEBSITE": null, "NAME": "C.6B", "POINT_ID": "P00621", "HOURS": null, "PHONE": null, "SUITE": "C.6B", "LEVEL_ID": "L014"}},
{"geometry": {"type": "Point", "coordinates": [103.77629453793561, 1.3284127385368341]}, "type": "Feature", "properties": {"CATEGORY": null, "WEBSITE": null, "NAME": "C.4A", "POINT_ID": "P00622", "HOURS": null, "PHONE": null, "SUITE": "C.4A", "LEVEL_ID": "L012"}},
{"geometry": {"type": "Point", "coordinates": [103.77633178530719, 1.3284697394068159]}, "type": "Feature", "properties": {"CATEGORY": null, "WEBSITE": null, "NAME": "C.3.A", "POINT_ID": "P00623", "HOURS": null, "PHONE": null, "SUITE": "C.3.A", "LEVEL_ID": "L011"}},
{"geometry": {"type": "Point", "coordinates": [103.77608512169591, 1.328591613389694]}, "type": "Feature", "properties": {"CATEGORY": null, "WEBSITE": null, "NAME": "C.3.B", "POINT_ID": "P00624", "HOURS": null, "PHONE": null, "SUITE": "C.3.B", "LEVEL_ID": "L011"}},
{"geometry": {"type": "Point", "coordinates": [103.77576148504282, 1.3287706340248291]}, "type": "Feature", "properties": {"CATEGORY": null, "WEBSITE": null, "NAME": "C.2.A", "POINT_ID": "P00625", "HOURS": null, "PHONE": null, "SUITE": "C.2A", "LEVEL_ID": "L010"}},
{"geometry": {"type": "Point", "coordinates": [103.77570375526146, 1.3287691762020679]}, "type": "Feature", "properties": {"CATEGORY": null, "WEBSITE": null, "NAME": "C.2B", "POINT_ID": "P00626", "HOURS": null, "PHONE": null, "SUITE": "C.2B", "LEVEL_ID": "L010"}},
{"geometry": {"type": "Point", "coordinates": [103.7757184146669, 1.3282853889337141]}, "type": "Feature", "properties": {"CATEGORY": null, "WEBSITE": null, "NAME": "D.4.01", "POINT_ID": "P00627", "HOURS": null, "PHONE": null, "SUITE": "D.4.01", "LEVEL_ID": "L012"}},
{"geometry": {"type": "Point", "coordinates": [103.77627816389145, 1.329327245406787]}, "type": "Feature", "properties": {"CATEGORY": null, "WEBSITE": null, "NAME": "President's Office", "POINT_ID": "P00700", "HOURS": null, "PHONE": null, "SUITE": "President's Office", "LEVEL_ID": "L006"}}
]
}